Entity ID,Entity Name,Plant ID,Plant Name,Google Map,Bing Map,Plant State,County,Balancing Authority Code,Sector,Generator ID,Unit Code,Nameplate Capacity (MW),Net Summer Capacity (MW),Net Winter Capacity (MW),Technology,Energy Source Code,Prime Mover Code,Planned Operation Month,Planned Operation Year,Status,Latitude,Longitude
61862,Thomas Solar,62352,Thomas Solar,Map,Map,SC,Lee,CPLE,IPP Non-CHP,81,,2.0,2.0,2.0,Solar Photovoltaic,SUN,PV,2,2024,"(TS) Construction complete, but not yet in commercial operation",34.087886,-80.115480
66150,"TJA-NY-11202 Ridge Rd Medina, LLC",66259,Source Power NY III - Medina II,Map,Map,NY,Orleans,NYIS,IPP Non-CHP,P5646,,5.0,5.0,5.0,Solar Photovoltaic,SUN,PV,2,2024,"(V) Under construction, more than 50 percent complete",43.267674,-78.399540
3913,City of Colby - (KS),1272,Colby City of,Map,Map,KS,Thomas,SWPP,Electric Utility,9,,3.0,3.0,3.0,Petroleum Liquids,DFO,IC,3,2024,"(TS) Construction complete, but not yet in commercial operation",39.394414,-101.058400
58939,Cameron Wind 1 LLC,59118,Cameron Wind 1 LLC,Map,Map,TX,Cameron,ERCO,IPP Non-CHP,SABAL,,16.4,16.4,16.4,Batteries,MWH,BA,3,2024,"(U) Under construction, less than or equal to 50 percent complete",26.195278,-97.466110
65226,"FGE Goodnight I, LLC",59246,Goodnight,Map,Map,TX,Armstrong,ERCO,IPP Non-CHP,GOOD1,,265.5,265.5,265.5,Onshore Wind Turbine,WND,WT,3,2024,"(TS) Construction complete, but not yet in commercial operation",35.093889,-101.326100
56201,Engie North America,61801,"Cascade Energy Storage, LLC",Map,Map,CA,San Joaquin,CISO,IPP Non-CHP,10002,,25.0,25.0,25.0,Batteries,MWH,BA,3,2024,"(TS) Construction complete, but not yet in commercial operation",37.920124,-121.239200
56201,Engie North America,61803,"Sierra Energy Storage, LLC",Map,Map,CA,Tuolumne,CISO,IPP Non-CHP,10003,,10.0,10.0,10.0,Batteries,MWH,BA,3,2024,"(V) Under construction, more than 50 percent complete",37.874400,-120.477400
63081,Exus North America Management Partners LLC,63342,Bearkat II Wind Energy LLC,Map,Map,TX,Glasscock,ERCO,IPP Non-CHP,BKII,,162.1,162.1,162.1,Onshore Wind Turbine,WND,WT,3,2024,"(TS) Construction complete, but not yet in commercial operation",31.754037,-101.675200
63117,Gemini Solar,63352,Gemini Solar,Map,Map,NV,Clark,NEVP,IPP Non-CHP,ARBE1,,690.0,690.0,690.0,Solar Photovoltaic,SUN,PV,3,2024,"(U) Under construction, less than or equal to 50 percent complete",36.467800,-114.806000
63117,Gemini Solar,63352,Gemini Solar,Map,Map,NV,Clark,NEVP,IPP Non-CHP,ARPV1,,380.0,380.0,380.0,Batteries,MWH,BA,3,2024,"(U) Under construction, less than or equal to 50 percent complete",36.467800,-114.806000
61298,Pine Gate Renewables,63787,Pleasant Hill PV1,Map,Map,NC,Northampton,PJM,IPP Non-CHP,PHILL,,20.0,20.0,20.0,Solar Photovoltaic,SUN,PV,3,2024,"(V) Under construction, more than 50 percent complete",36.531150,-77.550380
13407,Nevada Power Co,63933,Dry Lake Solar Energy Center,Map,Map,NV,Clark,NEVP,Electric Utility,DLES1,,100.0,100.0,100.0,Batteries,MWH,BA,3,2024,"(TS) Construction complete, but not yet in commercial operation",36.427260,-114.890700
13407,Nevada Power Co,63933,Dry Lake Solar Energy Center,Map,Map,NV,Clark,NEVP,Electric Utility,DLPV1,,150.0,150.0,150.0,Solar Photovoltaic,SUN,PV,3,2024,"(TS) Construction complete, but not yet in commercial operation",36.427260,-114.890700
63784,"Azure Sky Wind Project, LLC",64164,"Azure Sky Wind Project, LLC Hybrid",Map,Map,TX,Throckmorton,ERCO,IPP Non-CHP,ASWBE,,120.0,120.0,120.0,Batteries,MWH,BA,3,2024,"(TS) Construction complete, but not yet in commercial operation",33.190200,-99.259800
63841,"Hadley 3 Solar, LLC (North)",64231,Hadley 3 Solar (North),Map,Map,MA,Hampshire,ISNE,IPP Non-CHP,09170,,1.0,1.0,0.8,Batteries,MWH,BA,3,2024,"(TS) Construction complete, but not yet in commercial operation",42.358850,-72.542600
63837,Hecate Energy Frye Solar LLC,64233,Hecate Energy Frye Solar LLC,Map,Map,TX,Swisher,ERCO,IPP Non-CHP,80995,,500.0,500.0,500.0,Solar Photovoltaic,SUN,PV,3,2024,"(V) Under construction, more than 50 percent complete",34.406700,-101.596600
18642,Tennessee Valley Authority,64255,Vonore Battery Energy Storage System,Map,Map,TN,Monroe,TVA,Electric Utility,VBESS,,20.0,20.0,20.0,Batteries,MWH,BA,3,2024,"(U) Under construction, less than or equal to 50 percent complete",35.615430,-84.274890
64178,"Ranchland Wind Project II, LLC",64544,Ranchland Wind Project II,Map,Map,TX,Callahan,ERCO,IPP Non-CHP,WT2,,148.0,148.0,148.0,Onshore Wind Turbine,WND,WT,3,2024,"(TS) Construction complete, but not yet in commercial operation",32.307000,-99.165000
64179,"Ranchland Wind Storage, LLC",64545,Ranchland Wind Storage,Map,Map,TX,Callahan,ERCO,IPP Non-CHP,BA,,73.0,73.0,73.0,Batteries,MWH,BA,3,2024,"(TS) Construction complete, but not yet in commercial operation",32.306660,-99.164600
64177,"Ranchland Wind Project I, LLC",64551,Ranchland Wind Project I,Map,Map,TX,Callahan,ERCO,IPP Non-CHP,WT2,,114.9,114.9,114.9,Onshore Wind Turbine,WND,WT,3,2024,"(TS) Construction complete, but not yet in commercial operation",32.264680,-99.197200
61012,AES Distributed Energy,64656,AES West Oahu Solar Hybrid,Map,Map,HI,Honolulu,HECO,IPP Non-CHP,UHBES,,12.5,12.5,12.5,Batteries,MWH,BA,3,2024,"(V) Under construction, more than 50 percent complete",21.372000,-158.062000
61012,AES Distributed Energy,64656,AES West Oahu Solar Hybrid,Map,Map,HI,Honolulu,HECO,IPP Non-CHP,UHWO,,12.5,12.5,12.5,Solar Photovoltaic,SUN,PV,3,2024,"(V) Under construction, more than 50 percent complete",21.372000,-158.062000
62836,Navisun LLC,64707,Acushnet MA 2,Map,Map,MA,Bristol,ISNE,IPP Non-CHP,ACNT2,,1.0,1.0,1.0,Solar Photovoltaic,SUN,PV,3,2024,"(V) Under construction, more than 50 percent complete",41.705960,-70.886350
64307,"Castle Solar, LLC",64740,"Castle Solar, LLC",Map,Map,UT,Emery,PACE,IPP Non-CHP,CS,,40.0,40.0,40.0,Solar Photovoltaic,SUN,PV,3,2024,"(V) Under construction, more than 50 percent complete",39.334418,-110.990700
64371,"RPNY Solar 3, LLC",64867,Slayton Settlement Road Solar CSG,Map,Map,NY,Niagara,NYIS,IPP Non-CHP,SLYTB,,2.0,2.0,2.0,Solar Photovoltaic,SUN,PV,3,2024,"(TS) Construction complete, but not yet in commercial operation",43.203558,-78.645430
3046,Duke Energy Progress - (NC),64882,Woodfin Solar,Map,Map,NC,Buncombe,CPLW,Electric Utility,PV1,,5.0,5.0,5.0,Solar Photovoltaic,SUN,PV,3,2024,"(V) Under construction, more than 50 percent complete",35.660109,-82.598380
64446,ASD Cotuit MA Solar LLC,65014,ASD Cotuit MA Solar LLC,Map,Map,MA,Barnstable,ISNE,IPP Non-CHP,COT1B,,2.5,2.5,2.5,Batteries,MWH,BA,3,2024,"(V) Under construction, more than 50 percent complete",41.688722,-70.477480
64484,ASA DeKalb NY Solar III LLC,65067,ASA DeKalb NY Solar III LLC,Map,Map,NY,St Lawrence,NYIS,IPP Non-CHP,DEK3,,3.3,3.3,3.3,Solar Photovoltaic,SUN,PV,3,2024,"(V) Under construction, more than 50 percent complete",44.424108,-75.379190
60947,Tesla Inc.,65070,Austin TX GigaFactory,Map,Map,TX,Travis,ERCO,Industrial Non-CHP,B05,,1.0,1.0,1.0,Solar Photovoltaic,SUN,PV,3,2024,"(U) Under construction, less than or equal to 50 percent complete",30.220210,-97.619680
60947,Tesla Inc.,65070,Austin TX GigaFactory,Map,Map,TX,Travis,ERCO,Industrial Non-CHP,B07,,1.9,1.9,1.9,Solar Photovoltaic,SUN,PV,3,2024,"(U) Under construction, less than or equal to 50 percent complete",30.220210,-97.619680
60947,Tesla Inc.,65070,Austin TX GigaFactory,Map,Map,TX,Travis,ERCO,Industrial Non-CHP,C01,,1.9,1.9,1.9,Solar Photovoltaic,SUN,PV,3,2024,"(U) Under construction, less than or equal to 50 percent complete",30.220210,-97.619680
62842,"Lightsource Renewable Energy Asset Management, LLC",65081,Cottontail Solar 6,Map,Map,PA,Snyder,PJM,IPP Non-CHP,PACT6,,20.0,20.0,20.0,Solar Photovoltaic,SUN,PV,3,2024,"(TS) Construction complete, but not yet in commercial operation",40.792458,-76.905060
62856,"Forefront Power, LLC",65105,CA-DGS-California Correctional Inst,Map,Map,CA,Kern,CISO,IPP Non-CHP,15111,,4.0,4.0,4.0,Solar Photovoltaic,SUN,PV,3,2024,"(U) Under construction, less than or equal to 50 percent complete",35.113500,-118.569000
59254,NuGen Capital Management,65142,Bristol Landfill Solar,Map,Map,RI,Bristol,ISNE,IPP Non-CHP,BL1,,5.0,5.0,5.0,Solar Photovoltaic,SUN,PV,3,2024,"(V) Under construction, more than 50 percent complete",41.727627,-71.288490
64529,ASA Gouverneur NY Solar I LLC,65157,ASA Gouverneur NY Solar I LLC,Map,Map,NY,St Lawrence,NYIS,IPP Non-CHP,GOV1,,1.5,1.5,1.5,Solar Photovoltaic,SUN,PV,3,2024,"(V) Under construction, more than 50 percent complete",44.390853,-75.443240
64530,ASA Gouverneur NY Solar II LLC,65158,ASA Gouverneur NY Solar II LLC,Map,Map,NY,St Lawrence,NYIS,IPP Non-CHP,GOV2,,4.0,4.0,4.0,Solar Photovoltaic,SUN,PV,3,2024,"(V) Under construction, more than 50 percent complete",44.360089,-75.427470
64532,ASA Clayton NY Solar I LLC,65161,ASA Clayton NY Solar I LLC,Map,Map,NY,Jefferson,NYIS,IPP Non-CHP,CLA1,,1.3,1.3,1.3,Solar Photovoltaic,SUN,PV,3,2024,"(V) Under construction, more than 50 percent complete",44.161761,-76.108990
64516,"Azimuth 180 Solar Electric, LLC",65164,Grinnell College,Map,Map,IA,Poweshiek,MISO,IPP Non-CHP,GRIN,,3.9,3.9,3.9,Solar Photovoltaic,SUN,PV,3,2024,"(V) Under construction, more than 50 percent complete",41.760000,-92.720000
64624,"Cedar Creek Wind, LLC",65311,"Cedar Creek Wind, LLC",Map,Map,ID,Bingham,PACE,IPP Non-CHP,CDCRK,,160.0,160.0,160.0,Onshore Wind Turbine,WND,WT,3,2024,"(V) Under construction, more than 50 percent complete",43.327609,-112.057700
61012,AES Distributed Energy,65334,Platteview Solar LLC,Map,Map,NE,Saunders,SWPP,IPP Non-CHP,PLTVW,,81.0,81.0,81.0,Solar Photovoltaic,SUN,PV,3,2024,"(V) Under construction, more than 50 percent complete",41.190999,-96.379420
64740,"Santa Paula Energy Storage, LLC",65397,Santa Paula Energy Storage LLC,Map,Map,CA,Ventura,CISO,IPP Non-CHP,SP1,,30.0,30.0,30.0,Batteries,MWH,BA,3,2024,"(V) Under construction, more than 50 percent complete",34.357160,-119.055000
56201,Engie North America,65489,Dickens,Map,Map,TX,Dickens,ERCO,IPP Non-CHP,DIKNS,,200.0,200.0,200.0,Batteries,MWH,BA,3,2024,"(V) Under construction, more than 50 percent complete",33.781077,-100.883200
56201,Engie North America,65490,Hydra,Map,Map,TX,Pecos,ERCO,IPP Non-CHP,HYDRA,,200.0,200.0,200.0,Batteries,MWH,BA,3,2024,"(V) Under construction, more than 50 percent complete",30.992905,-102.289500
56201,Engie North America,65491,Paleo,Map,Map,TX,Hale,ERCO,IPP Non-CHP,PALEO,,200.0,200.0,200.0,Batteries,MWH,BA,3,2024,"(U) Under construction, less than or equal to 50 percent complete",33.889462,-101.801600
56201,Engie North America,65492,Pavo,Map,Map,TX,Pecos,ERCO,IPP Non-CHP,PAVO,,175.0,175.0,175.0,Batteries,MWH,BA,3,2024,"(V) Under construction, more than 50 percent complete",30.885123,-102.422600
6455,"Duke Energy Florida, LLC",65501,Mule Creek Renewable Energy Center,Map,Map,FL,Bay,FPC,Electric Utility,PV1,,74.9,74.9,74.9,Solar Photovoltaic,SUN,PV,3,2024,"(V) Under construction, more than 50 percent complete",30.110543,-85.397610
62856,"Forefront Power, LLC",65524,CA-DGS- RFP-Correctional Training Fac,Map,Map,CA,Monterey,CISO,IPP Non-CHP,14069,,1.6,1.6,1.6,Solar Photovoltaic,SUN,PV,3,2024,"(U) Under construction, less than or equal to 50 percent complete",36.467670,-121.384600
66027,Orsted Wind Power North America LLC,65561,South Fork Wind,Map,Map,NY,Suffolk,NYIS,IPP Non-CHP,SFWND,,130.0,130.0,130.0,Offshore Wind Turbine,WND,WS,3,2024,"(V) Under construction, more than 50 percent complete",41.090000,-71.130000
64925,"MA CS Dighton, LLC",65646,MA-Dighton-A,Map,Map,MA,Bristol,ISNE,IPP Non-CHP,MADIG,,3.8,3.8,3.8,Solar Photovoltaic,SUN,PV,3,2024,"(V) Under construction, more than 50 percent complete",41.833775,-71.160060
64995,"Victory Pass I, LLC",65743,Victory Pass,Map,Map,CA,Riverside,CISO,IPP Non-CHP,VCTBA,,50.0,50.0,50.0,Batteries,MWH,BA,3,2024,"(V) Under construction, more than 50 percent complete",33.701001,-115.316300
64995,"Victory Pass I, LLC",65743,Victory Pass,Map,Map,CA,Riverside,CISO,IPP Non-CHP,VCTPV,,200.0,200.0,200.0,Solar Photovoltaic,SUN,PV,3,2024,"(V) Under construction, more than 50 percent complete",33.701001,-115.316300
64996,"Arica Solar, LLC",65744,Arica Solar,Map,Map,CA,Riverside,CISO,IPP Non-CHP,ARCBA,,136.0,136.0,136.0,Batteries,MWH,BA,3,2024,"(V) Under construction, more than 50 percent complete",33.701001,-115.316300
64996,"Arica Solar, LLC",65744,Arica Solar,Map,Map,CA,Riverside,CISO,IPP Non-CHP,ARCPV,,263.0,263.0,263.0,Solar Photovoltaic,SUN,PV,3,2024,"(V) Under construction, more than 50 percent complete",33.701001,-115.316300
65006,"Linkville Solar, LLC",65749,Linkville Solar (CSG),Map,Map,OR,Klamath,PACW,IPP Non-CHP,LS22,,2.8,2.8,2.8,Solar Photovoltaic,SUN,PV,3,2024,"(V) Under construction, more than 50 percent complete",42.207661,-121.814600
65014,"Waco Solar, LLC",65762,Waco Solar,Map,Map,TX,Limestone,ERCO,IPP Non-CHP,SWACO,,400.0,400.0,400.0,Solar Photovoltaic,SUN,PV,3,2024,"(V) Under construction, more than 50 percent complete",31.710422,-96.818680
6452,Florida Power & Light Co,65862,Big Juniper Solar,Map,Map,FL,Santa Rosa,FPL,Electric Utility,1,,74.5,74.5,74.5,Solar Photovoltaic,SUN,PV,3,2024,"(V) Under construction, more than 50 percent complete",30.639330,-86.925580
6452,Florida Power & Light Co,65863,Three Creeks,Map,Map,FL,Manatee,FPL,Electric Utility,1,,74.5,74.5,74.5,Solar Photovoltaic,SUN,PV,3,2024,"(V) Under construction, more than 50 percent complete",27.579340,-82.260580
6452,Florida Power & Light Co,65864,Sambucus,Map,Map,FL,Manatee,FPL,Electric Utility,1,,74.5,74.5,74.5,Solar Photovoltaic,SUN,PV,3,2024,"(V) Under construction, more than 50 percent complete",27.448440,-82.063770
6452,Florida Power & Light Co,65867,Sparkleberry,Map,Map,FL,Escambia,FPL,Electric Utility,1,,74.5,74.5,74.5,Solar Photovoltaic,SUN,PV,3,2024,"(V) Under construction, more than 50 percent complete",30.763140,-87.433200
6452,Florida Power & Light Co,65875,Woodyard,Map,Map,FL,Hendry,FPL,Electric Utility,1,,74.5,74.5,74.5,Solar Photovoltaic,SUN,PV,3,2024,"(V) Under construction, more than 50 percent complete",26.409320,-81.048450
6452,Florida Power & Light Co,65879,Pecan Tree,Map,Map,FL,Walton,FPL,Electric Utility,1,,74.5,74.5,74.5,Solar Photovoltaic,SUN,PV,3,2024,"(V) Under construction, more than 50 percent complete",30.938167,-86.240110
6452,Florida Power & Light Co,65910,Wild Quail,Map,Map,FL,Walton,FPL,Electric Utility,1,,74.5,74.5,74.5,Solar Photovoltaic,SUN,PV,3,2024,"(V) Under construction, more than 50 percent complete",30.898050,-86.250070
6452,Florida Power & Light Co,65924,Nature Trail,Map,Map,FL,St Lucie,FPL,Electric Utility,1,,74.5,74.5,74.5,Solar Photovoltaic,SUN,PV,3,2024,"(V) Under construction, more than 50 percent complete",30.313550,-82.188390
6452,Florida Power & Light Co,65926,Hawthorne Creek,Map,Map,FL,DeSoto,FPL,Electric Utility,1,,74.5,74.5,74.5,Solar Photovoltaic,SUN,PV,3,2024,"(V) Under construction, more than 50 percent complete",27.083140,-81.841240
6452,Florida Power & Light Co,65927,Fourmile Creek,Map,Map,FL,Calhoun,FPL,Electric Utility,1,,74.5,74.5,74.5,Solar Photovoltaic,SUN,PV,3,2024,"(V) Under construction, more than 50 percent complete",30.439890,-85.275890
65118,AlphaStruxure Service Co LP,65945,Brookville Smart Bus Depot Microgrid,Map,Map,MD,Montgomery,PJM,Commercial Non-CHP,GEN2,,0.6,0.6,0.6,Natural Gas Internal Combustion Engine,NG,IC,3,2024,"(TS) Construction complete, but not yet in commercial operation",38.999030,-77.058000
65118,AlphaStruxure Service Co LP,65945,Brookville Smart Bus Depot Microgrid,Map,Map,MD,Montgomery,PJM,Commercial Non-CHP,GEN3,,0.6,0.6,0.6,Natural Gas Internal Combustion Engine,NG,IC,3,2024,"(TS) Construction complete, but not yet in commercial operation",38.999030,-77.058000
65123,"Tres Bahias Solar Power, LLC",65947,Tres Bahias,Map,Map,TX,Calhoun,ERCO,IPP Non-CHP,TB,,196.3,196.3,196.3,Solar Photovoltaic,SUN,PV,3,2024,"(TS) Construction complete, but not yet in commercial operation",28.688510,-96.509830
61944,MN8 Energy LLC,65959,WMATA - Cheverly Metro,Map,Map,MD,Prince Georges,PJM,IPP Non-CHP,GEN1,,1.9,1.9,1.9,Solar Photovoltaic,SUN,PV,3,2024,"(V) Under construction, more than 50 percent complete",38.915643,-76.917370
56769,Consolidated Edison Development Inc.,65979,Peregrine Solar,Map,Map,TX,Goliad,ERCO,IPP Non-CHP,PSPV,,300.0,300.0,300.0,Solar Photovoltaic,SUN,PV,3,2024,"(V) Under construction, more than 50 percent complete",28.427900,-97.454400
62856,"Forefront Power, LLC",66023,Grossmont-Cuyamaca-Cuyamaca Col. Solar &,Map,Map,CA,San Diego,CISO,IPP Non-CHP,18009,,1.4,1.4,1.4,Solar Photovoltaic,SUN,PV,3,2024,"(U) Under construction, less than or equal to 50 percent complete",32.746600,-116.938900
62856,"Forefront Power, LLC",66023,Grossmont-Cuyamaca-Cuyamaca Col. Solar &,Map,Map,CA,San Diego,CISO,IPP Non-CHP,19043,,1.0,1.0,1.0,Batteries,MWH,BA,3,2024,"(U) Under construction, less than or equal to 50 percent complete",32.746600,-116.938900
60025,Greenbacker Renewable Energy Corporation,66126,Hecate Energy Albany 2 LLC,Map,Map,NY,Albany,NYIS,IPP Non-CHP,292,,20.0,20.0,20.0,Solar Photovoltaic,SUN,PV,3,2024,"(V) Under construction, more than 50 percent complete",42.507913,-73.836510
65308,Cattlemen Solar Park LLC,66168,Cattlemen Solar Park,Map,Map,TX,Milam,ERCO,IPP Non-CHP,GEN01,,240.0,240.0,240.0,Solar Photovoltaic,SUN,PV,3,2024,"(TS) Construction complete, but not yet in commercial operation",31.045676,-96.858630
65315,"Crooked Lake Solar, LLC",66185,"Crooked Lake Solar, LLC",Map,Map,AR,Mississippi,MISO,IPP Non-CHP,GEN1,,175.0,175.0,175.0,Solar Photovoltaic,SUN,PV,3,2024,"(V) Under construction, more than 50 percent complete",35.914697,-89.784330
65344,Misenheimer Solar LLC,66237,Misenheimer Solar LLC,Map,Map,NC,Stanly,DUK,IPP Non-CHP,GEN01,,74.4,74.4,74.4,Solar Photovoltaic,SUN,PV,3,2024,"(TS) Construction complete, but not yet in commercial operation",35.478126,-80.300130
16609,San Diego Gas & Electric Co,66265,Paradise Energy Storage,Map,Map,CA,San Diego,CISO,Electric Utility,1,,10.0,10.0,10.0,Batteries,MWH,BA,3,2024,"(TS) Construction complete, but not yet in commercial operation",32.703630,-117.049800
16609,San Diego Gas & Electric Co,66266,Clairemont Energy Storage,Map,Map,CA,San Diego,CISO,Electric Utility,1,,10.0,10.0,10.0,Batteries,MWH,BA,3,2024,"(TS) Construction complete, but not yet in commercial operation",32.825604,-117.183200
65400,"Horus West Virginia 1, LLC",66276,Blake Solar Plant,Map,Map,WV,Jefferson,PJM,IPP Non-CHP,US620,,96.0,80.0,80.0,Solar Photovoltaic,SUN,PV,3,2024,"(TS) Construction complete, but not yet in commercial operation",39.263611,-77.833410
16609,San Diego Gas & Electric Co,66278,Elliott Energy Storage,Map,Map,CA,San Diego,CISO,Electric Utility,1,,10.0,10.0,10.0,Batteries,MWH,BA,3,2024,"(TS) Construction complete, but not yet in commercial operation",32.816380,-117.088900
16609,San Diego Gas & Electric Co,66279,Boulevard Energy Storage,Map,Map,CA,San Diego,CISO,Electric Utility,1,,10.0,10.0,10.0,Batteries,MWH,BA,3,2024,"(TS) Construction complete, but not yet in commercial operation",32.661840,-116.273400
16609,San Diego Gas & Electric Co,66280,Pala Gomez Creek BESS,Map,Map,CA,San Diego,CISO,Electric Utility,1,,10.0,10.0,10.0,Batteries,MWH,BA,3,2024,"(TS) Construction complete, but not yet in commercial operation",33.357667,-117.111700
16609,San Diego Gas & Electric Co,66281,Melrose BESS,Map,Map,CA,San Diego,CISO,Electric Utility,1,,10.0,10.0,10.0,Batteries,MWH,BA,3,2024,"(TS) Construction complete, but not yet in commercial operation",33.207233,-117.252800
16609,San Diego Gas & Electric Co,66281,Melrose BESS,Map,Map,CA,San Diego,CISO,Electric Utility,2,,10.0,10.0,10.0,Batteries,MWH,BA,3,2024,"(TS) Construction complete, but not yet in commercial operation",33.207233,-117.252800
64994,SolRiver Capital LLC,66345,Elk Solar LLC,Map,Map,NC,Hoke,DUK,IPP Non-CHP,PV1,,5.0,5.0,5.0,Solar Photovoltaic,SUN,PV,3,2024,"(TS) Construction complete, but not yet in commercial operation",34.983948,-79.276710
64994,SolRiver Capital LLC,66354,Sheridan Solar LLC (CSG),Map,Map,OR,Yamhill,PGE,IPP Non-CHP,PV1,,3.0,3.0,3.0,Solar Photovoltaic,SUN,PV,3,2024,"(TS) Construction complete, but not yet in commercial operation",45.101889,-123.409200
64994,SolRiver Capital LLC,66377,Gray Fox Solar LLC,Map,Map,NC,Robeson,DUK,IPP Non-CHP,PV1,,5.0,5.0,5.0,Solar Photovoltaic,SUN,PV,3,2024,"(TS) Construction complete, but not yet in commercial operation",34.862599,-79.140710
65502,"Five Wells Solar Center, LLC",66420,Five Wells Solar Center - Hybrid,Map,Map,TX,Bell,ERCO,IPP Non-CHP,FWBAT,,262.5,259.0,259.0,Batteries,MWH,BA,3,2024,"(V) Under construction, more than 50 percent complete",30.998647,-97.259020
64904,AES Clean Energy,66447,Westport Stone & Sand Solar,Map,Map,MA,Bristol,ISNE,IPP Non-CHP,WESTP,,5.0,5.0,5.0,Solar Photovoltaic,SUN,PV,3,2024,"(V) Under construction, more than 50 percent complete",41.621053,-71.055250
65575,Grand Island Sunrise LLC,66527,NY Grand Island 871 Whitehaven Rd Solar,Map,Map,NY,Erie,NYIS,IPP Non-CHP,21011,,5.0,5.0,5.0,Solar Photovoltaic,SUN,PV,3,2024,"(TS) Construction complete, but not yet in commercial operation",43.027501,-78.920660
6455,"Duke Energy Florida, LLC",66553,Winquepin Renewable Energy Center,Map,Map,FL,Madison,FPC,Electric Utility,PV1,,74.9,74.9,74.9,Solar Photovoltaic,SUN,PV,3,2024,"(V) Under construction, more than 50 percent complete",30.282497,-83.298230
64743,PPM Solar LLC,66570,Fredonia Solar (KS),Map,Map,KS,Wilson,SWPP,IPP Non-CHP,FS1,,2.0,2.0,2.0,Solar Photovoltaic,SUN,PV,3,2024,"(V) Under construction, more than 50 percent complete",37.547300,-95.817700
65654,Birch Creek Development,66631,"Earp Solar, LLC",Map,Map,IL,Warren,MISO,IPP Non-CHP,PV,,35.0,35.0,35.0,Solar Photovoltaic,SUN,PV,3,2024,"(TS) Construction complete, but not yet in commercial operation",40.891816,-90.668810
65674,Bear Canyon Energy Storage,66650,Bear Canyon,Map,Map,CA,Lake,CISO,IPP Non-CHP,BC1,,13.0,13.0,13.0,Batteries,MWH,BA,3,2024,"(V) Under construction, more than 50 percent complete",38.762781,-122.692800
65675,West Ford Flat Energy Storage,66669,West Ford Flat,Map,Map,CA,Lake,CISO,IPP Non-CHP,WFF1,,25.0,25.0,25.0,Batteries,MWH,BA,3,2024,"(V) Under construction, more than 50 percent complete",38.788111,-122.721800
65677,Dimension Energy LLC,66677,Visalia CSG LLC,Map,Map,CA,Tulare,CISO,IPP Non-CHP,VISAL,,3.0,3.0,3.0,Solar Photovoltaic,SUN,PV,3,2024,"(V) Under construction, more than 50 percent complete",36.306770,-119.240000
65677,Dimension Energy LLC,66679,Tulare CSG LLC,Map,Map,CA,Tulare,CISO,IPP Non-CHP,TULAR,,3.0,3.0,3.0,Solar Photovoltaic,SUN,PV,3,2024,"(V) Under construction, more than 50 percent complete",35.987380,-119.480400
65076,"HEN Infrastructure, L.L.C.",66784,Pauline BESS,Map,Map,TX,Henderson,ERCO,IPP Non-CHP,PAULN,,9.9,9.9,9.9,Batteries,MWH,BA,3,2024,"(TS) Construction complete, but not yet in commercial operation",32.335025,-96.057900
65076,"HEN Infrastructure, L.L.C.",66788,Mineral Wells East BESS,Map,Map,TX,Palo Pinto,ERCO,IPP Non-CHP,MNWLE,,9.9,9.9,9.9,Batteries,MWH,BA,3,2024,"(TS) Construction complete, but not yet in commercial operation",32.798754,-98.064970
65076,"HEN Infrastructure, L.L.C.",66789,Lufkin South BESS,Map,Map,TX,Angelina,ERCO,IPP Non-CHP,LUFKS,,9.9,9.9,9.9,Batteries,MWH,BA,3,2024,"(TS) Construction complete, but not yet in commercial operation",31.291983,-94.724240
65076,"HEN Infrastructure, L.L.C.",66790,Judkins BESS,Map,Map,TX,Ector,ERCO,IPP Non-CHP,JUDKS,,9.9,9.9,9.9,Batteries,MWH,BA,3,2024,"(TS) Construction complete, but not yet in commercial operation",31.715592,-102.598100
65076,"HEN Infrastructure, L.L.C.",66791,Garden City East BESS,Map,Map,TX,Glasscock,ERCO,IPP Non-CHP,GRDNE,,9.9,9.9,9.9,Batteries,MWH,BA,3,2024,"(TS) Construction complete, but not yet in commercial operation",31.867209,-101.469400
65076,"HEN Infrastructure, L.L.C.",66794,Diboll BESS,Map,Map,TX,Angelina,ERCO,IPP Non-CHP,DIBOL,,9.9,9.9,9.9,Batteries,MWH,BA,3,2024,"(TS) Construction complete, but not yet in commercial operation",31.193794,-94.798180
65781,Sky Ranch Solar and Storage,66814,Sky Ranch Solar and Storage,Map,Map,NM,Valencia,PNM,IPP Non-CHP,SKYBA,,50.0,50.0,50.0,Batteries,MWH,BA,3,2024,"(U) Under construction, less than or equal to 50 percent complete",34.781625,-106.776900
65781,Sky Ranch Solar and Storage,66814,Sky Ranch Solar and Storage,Map,Map,NM,Valencia,PNM,IPP Non-CHP,SKYPV,,190.0,190.0,190.0,Solar Photovoltaic,SUN,PV,3,2024,"(U) Under construction, less than or equal to 50 percent complete",34.781625,-106.776900
64872,"Distributed Solar Development, LLC",66827,FFP - NY Burch,Map,Map,NY,Washington,NYIS,IPP Non-CHP,P5651,,2.5,2.5,2.5,Solar Photovoltaic,SUN,PV,3,2024,"(V) Under construction, more than 50 percent complete",43.322650,-73.467980
60025,Greenbacker Renewable Energy Corporation,66832,Athens Ridge,Map,Map,ME,Somerset,ISNE,IPP Non-CHP,574,,2.9,2.9,2.9,Solar Photovoltaic,SUN,PV,3,2024,"(V) Under construction, more than 50 percent complete",44.917755,-69.670660
64904,AES Clean Energy,66867,Cannonball Solar,Map,Map,MD,Frederick,PJM,IPP Non-CHP,CBALL,,2.0,2.0,2.0,Solar Photovoltaic,SUN,PV,3,2024,"(V) Under construction, more than 50 percent complete",39.546300,-77.416400
64904,AES Clean Energy,66868,Big Spring Solar,Map,Map,MD,Washington,PJM,IPP Non-CHP,BIGSP,,2.0,2.1,2.1,Solar Photovoltaic,SUN,PV,3,2024,"(V) Under construction, more than 50 percent complete",39.630100,-77.909900
65799,"Enel Green Power Estonian Solar Project, LLC",66872,"Estonian Solar Project, LLC",Map,Map,TX,Delta,ERCO,IPP Non-CHP,BESS,,100.0,100.0,100.0,Batteries,MWH,BA,3,2024,"(TS) Construction complete, but not yet in commercial operation",33.457143,-95.667900
65827,Fork in the Road Solar LLC,66909,Fork in the Road Solar,Map,Map,NY,Dutchess,NYIS,IPP Non-CHP,FIR,,1.4,1.4,1.4,Solar Photovoltaic,SUN,PV,3,2024,"(V) Under construction, more than 50 percent complete",41.950000,-73.750000
61944,MN8 Energy LLC,67012,Dynamic - Norridgewock Martin Stream,Map,Map,ME,Somerset,ISNE,IPP Non-CHP,GEN1,,4.9,4.9,4.9,Solar Photovoltaic,SUN,PV,3,2024,"(TS) Construction complete, but not yet in commercial operation",44.694066,-69.787000
62759,National Grid Renewables,67019,"Copperhead Solar, LLC",Map,Map,TX,McLennan,ERCO,IPP Non-CHP,CHSTG,,100.0,100.0,100.0,Batteries,MWH,BA,3,2024,"(V) Under construction, more than 50 percent complete",31.450000,-96.860000
65951,Randolf Solar Partners LLC,67028,Randolf Solar,Map,Map,VA,Shenandoah,PJM,IPP Non-CHP,METER,,3.2,2.6,2.1,Solar Photovoltaic,SUN,PV,3,2024,"(V) Under construction, more than 50 percent complete",38.745097,-78.675230
65947,"Northern Orchard Solar PV, LLC",67039,"Northern Orchard Solar PV, LLC",Map,Map,CA,Kern,,IPP Non-CHP,NO1,,150.0,150.0,150.0,Solar Photovoltaic,SUN,PV,3,2024,"(U) Under construction, less than or equal to 50 percent complete",35.120183,-119.279000
65947,"Northern Orchard Solar PV, LLC",67039,"Northern Orchard Solar PV, LLC",Map,Map,CA,Kern,,IPP Non-CHP,NOBAT,,92.0,92.0,92.0,Batteries,MWH,BA,3,2024,"(U) Under construction, less than or equal to 50 percent complete",35.120183,-119.279000
64994,SolRiver Capital LLC,67052,Whitehall Solar LLC,Map,Map,SC,Florence,DUK,IPP Non-CHP,PV1,,2.0,2.0,2.0,Solar Photovoltaic,SUN,PV,3,2024,"(TS) Construction complete, but not yet in commercial operation",34.039056,-79.916660
64994,SolRiver Capital LLC,67053,"Harding Solar, LLC",Map,Map,NC,Greene,DUK,IPP Non-CHP,PV1,,3.0,3.0,3.0,Solar Photovoltaic,SUN,PV,3,2024,"(TS) Construction complete, but not yet in commercial operation",35.384636,-77.611610
60025,Greenbacker Renewable Energy Corporation,67054,Trimbelle (Pierce Pepin),Map,Map,WI,Price,MISO,IPP Non-CHP,705,,2.0,2.0,2.0,Solar Photovoltaic,SUN,PV,3,2024,"(V) Under construction, more than 50 percent complete",44.625156,-92.575740
60025,Greenbacker Renewable Energy Corporation,67055,Ogema,Map,Map,WI,Price,MISO,IPP Non-CHP,706,,1.4,1.4,1.4,Solar Photovoltaic,SUN,PV,3,2024,"(V) Under construction, more than 50 percent complete",45.447992,-90.328410
60025,Greenbacker Renewable Energy Corporation,67057,Wolf River (Chipewa 1),Map,Map,WI,Chippewa,MISO,IPP Non-CHP,707,,1.5,1.5,1.5,Solar Photovoltaic,SUN,PV,3,2024,"(V) Under construction, more than 50 percent complete",44.950456,-90.964300
65954,Small Mouth Bass Solar Partners LLC,67072,Small Mouth Bass Solar,Map,Map,VA,Rockbridge,PJM,IPP Non-CHP,METER,,2.5,2.4,1.2,Solar Photovoltaic,SUN,PV,3,2024,"(V) Under construction, more than 50 percent complete",37.906257,-79.403870
65953,Heimlich Solar Partners LLC,67074,Heimlich Solar,Map,Map,DE,Sussex,PJM,IPP Non-CHP,METER,,4.5,4.3,2.9,Solar Photovoltaic,SUN,PV,3,2024,"(V) Under construction, more than 50 percent complete",38.795634,-75.606070
9417,Interstate Power and Light Co,67140,Duane Arnold Solar I (50 MW),Map,Map,IA,Linn,MISO,Electric Utility,PV1,,50.0,50.0,50.0,Solar Photovoltaic,SUN,PV,3,2024,"(V) Under construction, more than 50 percent complete",42.104396,-91.782580
64904,AES Clean Energy,67176,Chevelon Butte Phase 2,Map,Map,AZ,Coconino,AZPS,IPP Non-CHP,CHVB2,,216.0,216.0,216.0,Onshore Wind Turbine,WND,WT,3,2024,"(V) Under construction, more than 50 percent complete",34.682100,-110.803000
60025,Greenbacker Renewable Energy Corporation,67180,Oaks Landfill - ANEM,Map,Map,MD,Montgomery,PJM,IPP Non-CHP,882,,2.5,2.5,2.5,Solar Photovoltaic,SUN,PV,3,2024,"(V) Under construction, more than 50 percent complete",39.193672,-77.118720
66099,Jade Meadow LLC,67214,Jade Meadow LLC,Map,Map,MD,Allegany,PJM,IPP Non-CHP,JMS01,,19.8,19.8,19.8,Solar Photovoltaic,SUN,PV,3,2024,"(V) Under construction, more than 50 percent complete",39.598000,-78.951000
66147,"FFP NY Goshen Project1, LLC",67281,FFP - NY Urbanski,Map,Map,NY,Orange,NYIS,IPP Non-CHP,5653,,4.4,4.4,4.4,Solar Photovoltaic,SUN,PV,3,2024,"(V) Under construction, more than 50 percent complete",41.330899,-74.403420
66147,"FFP NY Goshen Project1, LLC",67281,FFP - NY Urbanski,Map,Map,NY,Orange,NYIS,IPP Non-CHP,5653B,,5.2,5.2,5.2,Batteries,MWH,BA,3,2024,"(V) Under construction, more than 50 percent complete",41.330899,-74.403420
66148,"FFP NY Goshen Project2, LLC",67282,FFP - NY Varano,Map,Map,NY,Orange,NYIS,IPP Non-CHP,5654,,5.0,5.0,5.0,Solar Photovoltaic,SUN,PV,3,2024,"(V) Under construction, more than 50 percent complete",41.375291,-74.392910
66148,"FFP NY Goshen Project2, LLC",67282,FFP - NY Varano,Map,Map,NY,Orange,NYIS,IPP Non-CHP,5654B,,5.0,5.0,5.0,Batteries,MWH,BA,3,2024,"(V) Under construction, more than 50 percent complete",41.375291,-74.392910
59380,"Enel Green Power NA, Inc.",67284,Ganado Solar,Map,Map,TX,Borden,ERCO,IPP Non-CHP,GBA,,70.5,70.5,70.5,Batteries,MWH,BA,3,2024,"(TS) Construction complete, but not yet in commercial operation",29.109147,-96.528760
7140,Georgia Power Co,649,Vogtle,Map,Map,GA,Burke,SOCO,Electric Utility,4,,"1,114.0","1,114.0","1,114.0",Nuclear,NUC,ST,4,2024,"(V) Under construction, more than 50 percent complete",33.142700,-81.762500
20141,City of Washington - (KS),1329,Washington,Map,Map,KS,Washington,SWPP,Electric Utility,10,,2.1,2.0,2.0,Natural Gas Internal Combustion Engine,NG,IC,4,2024,"(V) Under construction, more than 50 percent complete",39.730600,-96.979500
20141,City of Washington - (KS),1329,Washington,Map,Map,KS,Washington,SWPP,Electric Utility,9,,2.1,2.0,2.0,Natural Gas Internal Combustion Engine,NG,IC,4,2024,"(V) Under construction, more than 50 percent complete",39.730600,-96.979500
34691,Ormat Nevada Inc,50654,Steamboat Hills LP,Map,Map,NV,Washoe,NEVP,IPP Non-CHP,SBSL2,,3.6,3.6,1.8,Solar Photovoltaic,SUN,PV,4,2024,"(V) Under construction, more than 50 percent complete",39.370000,-119.766900
34359,Curators of the University of Missouri,50969,MU Combined Heat and Power Plant,Map,Map,MO,Boone,MISO,Commercial CHP,GEN10,,9.0,8.0,8.0,Natural Gas Steam Turbine,NG,ST,4,2024,"(V) Under construction, more than 50 percent complete",38.946100,-92.332800
59967,Phoenix Energy,60192,North Fork Community Power,Map,Map,CA,Madera,CISO,IPP Non-CHP,NFCP1,,2.3,2.3,2.3,Other Waste Biomass,OBG,IC,4,2024,"(V) Under construction, more than 50 percent complete",37.231531,-119.494300
62153,Hecate Energy Highland LLC,62670,Hecate Energy Highland LLC,Map,Map,OH,Highland,PJM,IPP Non-CHP,HIGHL,,300.0,300.0,300.0,Solar Photovoltaic,SUN,PV,4,2024,"(V) Under construction, more than 50 percent complete",39.083514,-83.809810
17609,Southern California Edison Co,63325,Yorktown Battery Energy Storage Facility,Map,Map,CA,Los Angeles,CISO,Electric Utility,YORK1,,3.0,3.0,3.0,Batteries,MWH,BA,4,2024,"(V) Under construction, more than 50 percent complete",34.004670,-118.068400
17609,Southern California Edison Co,63326,Cadillac Battery Energy Storage Facility,Map,Map,CA,Los Angeles,CISO,Electric Utility,CAD1,,3.5,3.5,3.5,Batteries,MWH,BA,4,2024,"(V) Under construction, more than 50 percent complete",34.004690,-118.068400
63216,North Valley,63491,North Valley,Map,Map,NV,Washoe,NEVP,IPP Non-CHP,NVSOL,,5.5,5.5,2.8,Solar Photovoltaic,SUN,PV,4,2024,"(V) Under construction, more than 50 percent complete",40.372940,-119.462500
15399,Avangrid Renewables LLC,63507,Bakeoven Solar,Map,Map,OR,Wasco,AVRN,IPP Non-CHP,BOS1,,60.0,60.0,60.0,Solar Photovoltaic,SUN,PV,4,2024,"(V) Under construction, more than 50 percent complete",45.131793,-120.880700
11806,Massachusetts Mun Wholes Electric Co,63559,MMWEC Simple Cycle Gas Turbine,Map,Map,MA,Essex,ISNE,Electric Utility,GT1,,65.0,57.0,59.0,Natural Gas Fired Combustion Turbine,NG,GT,4,2024,"(TS) Construction complete, but not yet in commercial operation",42.543420,-70.927970
63331,"Organic Energy Solutions, Inc.",63622,OES Biogas Power,Map,Map,CA,San Bernardino,CISO,IPP CHP,OES01,,1.3,1.3,1.3,Other Waste Biomass,OBG,IC,4,2024,"(TS) Construction complete, but not yet in commercial operation",34.173250,-117.346400
63331,"Organic Energy Solutions, Inc.",63622,OES Biogas Power,Map,Map,CA,San Bernardino,CISO,IPP CHP,OES02,,1.3,1.3,1.3,Other Waste Biomass,OBG,IC,4,2024,"(TS) Construction complete, but not yet in commercial operation",34.173250,-117.346400
63515,"Sparta Solar, LLC",63840,Sparta Solar,Map,Map,TX,Bee,ERCO,IPP Non-CHP,1111,,250.0,250.0,250.0,Solar Photovoltaic,SUN,PV,4,2024,"(V) Under construction, more than 50 percent complete",28.655277,-98.001390
63545,"Golden Field Solar III, LLC",63859,"Golden Field Solar III, LLC",Map,Map,CA,Kern,CISO,IPP Non-CHP,RCBA,,147.0,147.0,147.0,Batteries,MWH,BA,4,2024,(T) Regulatory approvals received. Not under construction,34.847000,-118.395000
56215,"RWE Renewables Americas, LLC",63877,"Willowbrook Solar I, LLC",Map,Map,OH,Highland,PJM,IPP Non-CHP,WBS,,150.0,150.0,150.0,Solar Photovoltaic,SUN,PV,4,2024,"(U) Under construction, less than or equal to 50 percent complete",39.021755,-83.705010
49893,Invenergy Services LLC,63884,Delilah Solar Energy II LLC,Map,Map,TX,Red River,ERCO,IPP Non-CHP,GEN1,,310.0,310.0,310.0,Solar Photovoltaic,SUN,PV,4,2024,"(V) Under construction, more than 50 percent complete",33.481551,-95.269250
63638,"Horseshoe Solar, LLC",63984,"Horseshoe Solar, LLC",Map,Map,UT,Tooele,PACE,IPP Non-CHP,HSS,,75.0,75.0,75.0,Solar Photovoltaic,SUN,PV,4,2024,"(V) Under construction, more than 50 percent complete",40.718280,-112.665800
60947,Tesla Inc.,64098,Tesla Reno GigaFactory,Map,Map,NV,Storey,NEVP,Industrial Non-CHP,3,,1.0,1.0,1.0,Solar Photovoltaic,SUN,PV,4,2024,"(TS) Construction complete, but not yet in commercial operation",39.539511,-119.439200
56215,"RWE Renewables Americas, LLC",64202,"Big Star Solar, LLC (Hybrid)",Map,Map,TX,Bastrop,ERCO,IPP Non-CHP,BGSTB,,80.0,80.0,80.0,Batteries,MWH,BA,4,2024,"(V) Under construction, more than 50 percent complete",29.894053,-97.270540
56215,"RWE Renewables Americas, LLC",64202,"Big Star Solar, LLC (Hybrid)",Map,Map,TX,Bastrop,ERCO,IPP Non-CHP,BGSTS,,200.0,200.0,200.0,Solar Photovoltaic,SUN,PV,4,2024,"(V) Under construction, more than 50 percent complete",29.894053,-97.270540
63830,"7V Solar Ranch, LLC",64239,7V Solar Ranch,Map,Map,TX,Fayette,ERCO,IPP Non-CHP,7V1,,240.0,240.0,240.0,Solar Photovoltaic,SUN,PV,4,2024,"(V) Under construction, more than 50 percent complete",29.806984,-97.074080
57416,"Acciona Energy USA Global, LLC",64660,"AEUG Union Solar, LLC",Map,Map,OH,Union,PJM,IPP Non-CHP,AUS,,325.0,325.0,325.0,Solar Photovoltaic,SUN,PV,4,2024,"(U) Under construction, less than or equal to 50 percent complete",40.437526,-83.483490
50123,"Leeward Asset Management, LLC",64864,Chaparral Springs,Map,Map,CA,Kern,CISO,IPP Non-CHP,CHAPB,,52.0,52.0,52.0,Batteries,MWH,BA,4,2024,"(V) Under construction, more than 50 percent complete",34.870764,-118.319500
50123,"Leeward Asset Management, LLC",64864,Chaparral Springs,Map,Map,CA,Kern,CISO,IPP Non-CHP,CHAPS,,102.0,102.0,102.0,Solar Photovoltaic,SUN,PV,4,2024,"(V) Under construction, more than 50 percent complete",34.870764,-118.319500
50123,"Leeward Asset Management, LLC",64864,Chaparral Springs,Map,Map,CA,Kern,CISO,IPP Non-CHP,GEN01,,72.0,72.0,72.0,Solar Photovoltaic,SUN,PV,4,2024,"(V) Under construction, more than 50 percent complete",34.870764,-118.319500
50123,"Leeward Asset Management, LLC",64864,Chaparral Springs,Map,Map,CA,Kern,CISO,IPP Non-CHP,WS3BA,,36.0,36.0,36.0,Batteries,MWH,BA,4,2024,"(V) Under construction, more than 50 percent complete",34.870764,-118.319500
20856,Wisconsin Power & Light Co,65007,Grant County,Map,Map,WI,Grant,MISO,Electric Utility,PV1,,200.0,200.0,115.0,Solar Photovoltaic,SUN,PV,4,2024,"(V) Under construction, more than 50 percent complete",42.718978,-90.701040
62842,"Lightsource Renewable Energy Asset Management, LLC",65076,Cottontail Solar 1,Map,Map,PA,York,PJM,IPP Non-CHP,PACT1,,20.0,20.0,20.0,Solar Photovoltaic,SUN,PV,4,2024,"(V) Under construction, more than 50 percent complete",39.901749,-76.823320
62842,"Lightsource Renewable Energy Asset Management, LLC",65082,Cottontail Solar 8,Map,Map,PA,York,PJM,IPP Non-CHP,PACT8,,20.0,20.0,20.0,Solar Photovoltaic,SUN,PV,4,2024,"(TS) Construction complete, but not yet in commercial operation",39.925412,-76.783840
64507,"North Haven Solar One, LLC",65109,North Haven Solar One,Map,Map,CT,New Haven,ISNE,IPP Non-CHP,VCP11,,1.6,1.6,1.6,Solar Photovoltaic,SUN,PV,4,2024,"(TS) Construction complete, but not yet in commercial operation",41.376813,-72.836460
58468,Dominion Renewable Energy,65128,Atlanta Farms Solar,Map,Map,OH,Pickaway,PJM,IPP Non-CHP,43164,,199.6,199.6,199.6,Solar Photovoltaic,SUN,PV,4,2024,"(U) Under construction, less than or equal to 50 percent complete",39.560000,-83.176000
64752,"Perendale Holdings, LLC",65426,"Perendale Holdings, LLC",Map,Map,NC,Davie,DUK,IPP Non-CHP,GEN1,,7.5,7.5,7.5,Solar Photovoltaic,SUN,PV,4,2024,"(U) Under construction, less than or equal to 50 percent complete",35.985701,-80.544070
56990,NJR Clean Energy Ventures Corporation,65486,Love Lane Solar,Map,Map,NJ,Cumberland,PJM,IPP Non-CHP,LOVLN,,1.8,1.8,1.8,Solar Photovoltaic,SUN,PV,4,2024,"(TS) Construction complete, but not yet in commercial operation",39.471000,-75.218000
56201,Engie North America,65493,Tortolas,Map,Map,TX,Brazoria,ERCO,IPP Non-CHP,TORTO,,50.0,50.0,50.0,Batteries,MWH,BA,4,2024,"(U) Under construction, less than or equal to 50 percent complete",29.432362,-95.250700
64966,"Vikings Energy Farm, LLC",65711,Vikings Energy Farm,Map,Map,CA,Imperial,IID,IPP Non-CHP,GEN2,,150.0,150.0,150.0,Batteries,MWH,BA,4,2024,"(V) Under construction, more than 50 percent complete",32.803363,-115.271700
65011,"El Sauz Ranch Wind, LLC",65760,"El Sauz Ranch Wind, LLC",Map,Map,TX,Willacy,ERCO,IPP Non-CHP,ELSAU,,301.0,301.0,301.0,Onshore Wind Turbine,WND,WT,4,2024,"(V) Under construction, more than 50 percent complete",26.500883,-97.599060
65018,"East Point Energy Center, LLC",65805,"East Point Energy Center, LLC",Map,Map,NY,Schoharie,NYIS,IPP Non-CHP,EP01,,50.0,50.0,50.0,Solar Photovoltaic,SUN,PV,4,2024,"(U) Under construction, less than or equal to 50 percent complete",42.461371,-74.335090
65076,"HEN Infrastructure, L.L.C.",65812,Farmersville (TX),Map,Map,TX,Collin,ERCO,IPP Non-CHP,FRMVL,,9.9,9.9,9.9,Batteries,MWH,BA,4,2024,"(V) Under construction, more than 50 percent complete",33.161110,-96.409130
64904,AES Clean Energy,66000,Delta Wind Farm (MS),Map,Map,MS,Coahoma,MISO,IPP Non-CHP,DLTA,,184.5,184.5,184.5,Onshore Wind Turbine,WND,WT,4,2024,"(V) Under construction, more than 50 percent complete",34.469231,-90.392700
65213,"Wolfskin Solar, LLC",66027,Wolfskin Solar,Map,Map,GA,Oglethorpe,SOCO,IPP Non-CHP,GA-04,,38.0,38.0,38.0,Solar Photovoltaic,SUN,PV,4,2024,"(V) Under construction, more than 50 percent complete",33.881462,-83.246680
65208,"TPE RI WA2, LLC",66044,TPE RI WA2 Solar,Map,Map,RI,Bristol,ISNE,IPP Non-CHP,70824,,3.4,3.4,3.2,Solar Photovoltaic,SUN,PV,4,2024,"(V) Under construction, more than 50 percent complete",41.738360,-71.267390
65209,"TPE RI WA1, LLC",66045,TPE RI WA1 Solar,Map,Map,RI,Bristol,ISNE,IPP Non-CHP,70825,,3.5,3.5,3.5,Solar Photovoltaic,SUN,PV,4,2024,"(V) Under construction, more than 50 percent complete",41.739340,-71.267280
65271,"Blue Elk II Solar, LLC",66105,"Blue Elk II Solar, LLC",Map,Map,MI,Ingham,MISO,IPP Non-CHP,BEII,,20.0,20.0,20.0,Solar Photovoltaic,SUN,PV,4,2024,"(U) Under construction, less than or equal to 50 percent complete",42.504888,-84.477000
61060,Cypress Creek Renewables,66137,Zier Solar,Map,Map,TX,Kinney,ERCO,IPP Non-CHP,11023,,40.4,40.4,40.4,Batteries,MWH,BA,4,2024,"(TS) Construction complete, but not yet in commercial operation",29.350992,-100.562000
61060,Cypress Creek Renewables,66137,Zier Solar,Map,Map,TX,Kinney,ERCO,IPP Non-CHP,41195,,160.0,160.0,160.0,Solar Photovoltaic,SUN,PV,4,2024,"(TS) Construction complete, but not yet in commercial operation",29.350992,-100.562000
60025,Greenbacker Renewable Energy Corporation,66144,Smithfield 1,Map,Map,UT,Beaver,WACM,IPP Non-CHP,523,,5.0,5.0,5.0,Solar Photovoltaic,SUN,PV,4,2024,"(V) Under construction, more than 50 percent complete",38.388100,-112.994600
63235,Brookfield Renewable Trading and Marketing LP,66167,AM Wind Repower LLC,Map,Map,CA,Riverside,CISO,IPP Non-CHP,63235,,27.0,27.0,27.0,Onshore Wind Turbine,WND,WT,4,2024,"(U) Under construction, less than or equal to 50 percent complete",33.943741,-116.661500
4254,Consumers Energy Co - (MI),66192,Heartland Farms,Map,Map,MI,Gratiot,MISO,IPP Non-CHP,65014,,200.0,200.0,200.0,Onshore Wind Turbine,WND,WT,4,2024,"(U) Under construction, less than or equal to 50 percent complete",43.213889,-84.633060
65394,"Proxima Solar, LLC",66270,Proxima,Map,Map,CA,Stanislaus,CISO,IPP Non-CHP,PRXBS,,162.0,162.0,162.0,Batteries,MWH,BA,4,2024,"(TS) Construction complete, but not yet in commercial operation",37.400350,-121.162800
65394,"Proxima Solar, LLC",66270,Proxima,Map,Map,CA,Stanislaus,CISO,IPP Non-CHP,PRXMA,,190.0,190.0,190.0,Solar Photovoltaic,SUN,PV,4,2024,"(V) Under construction, more than 50 percent complete",37.400350,-121.162800
65397,Condor Energy Storage LLC,66285,Condor Energy Storage LLC,Map,Map,CA,San Bernardino,CISO,IPP Non-CHP,COND1,,200.0,200.0,200.0,Batteries,MWH,BA,4,2024,"(V) Under construction, more than 50 percent complete",34.020478,-117.332400
9191,Idaho Power Co,66325,Hemmingway BESS,Map,Map,ID,Owyhee,IPCO,Electric Utility,1,,80.0,80.0,80.0,Batteries,MWH,BA,4,2024,"(U) Under construction, less than or equal to 50 percent complete",43.351510,-116.662100
9191,Idaho Power Co,66326,Black Mesa BESS,Map,Map,ID,Elmore,IPCO,Electric Utility,1,,40.0,40.0,40.0,Batteries,MWH,BA,4,2024,"(U) Under construction, less than or equal to 50 percent complete",42.908446,-115.181300
65426,St. Gall Energy Storage I,66336,St. Gall Energy Storage I,Map,Map,TX,Pecos,ERCO,IPP Non-CHP,SGES1,,102.6,100.0,100.0,Batteries,MWH,BA,4,2024,"(U) Under construction, less than or equal to 50 percent complete",30.924381,-102.953600
64904,AES Clean Energy,66449,Northline Solar,Map,Map,NY,Rensselaer,NYIS,IPP Non-CHP,NORTH,,4.0,4.0,4.0,Solar Photovoltaic,SUN,PV,4,2024,"(V) Under construction, more than 50 percent complete",42.869100,-73.615300
65513,Catalyze Mira Loma 3251 De Forest Circle Microgrid LLC,66476,CA Jurupa Valley 3251 De Forest Circle,Map,Map,CA,Riverside,CISO,IPP Non-CHP,18268,,4.5,4.5,4.5,Solar Photovoltaic,SUN,PV,4,2024,"(TS) Construction complete, but not yet in commercial operation",34.026711,-117.521100
65556,EnerSmart Chula Vista Sub Station,66505,EnerSmart Chula Vista Sub Station,Map,Map,CA,San Diego,CISO,IPP Non-CHP,CV150,,3.0,3.0,3.0,Batteries,MWH,BA,4,2024,"(TS) Construction complete, but not yet in commercial operation",32.594500,-117.050700
65556,EnerSmart Chula Vista Sub Station,66505,EnerSmart Chula Vista Sub Station,Map,Map,CA,San Diego,CISO,IPP Non-CHP,CV151,,3.0,3.0,3.0,Batteries,MWH,BA,4,2024,"(TS) Construction complete, but not yet in commercial operation",32.594500,-117.050700
65514,Catalyze Manteca 730 Spreckels Avenue Microgrid LLC,66509,CA Manteca 730 Spreckels Ave,Map,Map,CA,San Joaquin,CISO,IPP Non-CHP,18259,,1.5,1.5,1.5,Solar Photovoltaic,SUN,PV,4,2024,"(V) Under construction, more than 50 percent complete",37.788679,-121.194500
65514,Catalyze Manteca 730 Spreckels Avenue Microgrid LLC,66509,CA Manteca 730 Spreckels Ave,Map,Map,CA,San Joaquin,CISO,IPP Non-CHP,B8259,,1.5,1.5,1.5,Batteries,MWH,BA,4,2024,"(V) Under construction, more than 50 percent complete",37.788679,-121.194500
65565,"Catalyze Houston Express Lane Microgrid, LLC",66517,TX Houston 7080 Express Lane,Map,Map,TX,Harris,MISO,IPP Non-CHP,19344,,1.9,1.9,1.9,Solar Photovoltaic,SUN,PV,4,2024,"(V) Under construction, more than 50 percent complete",29.825138,-95.247060
65591,"Cane Creek Solar, LLC",66543,Cane Creek,Map,Map,MS,Clarke,SOCO,IPP Non-CHP,PGRCC,,78.5,78.5,78.5,Solar Photovoltaic,SUN,PV,4,2024,"(V) Under construction, more than 50 percent complete",31.976997,-88.887580
65592,"Moonshot Solar, LLC",66544,Moonshot,Map,Map,MS,Hancock,SOCO,IPP Non-CHP,PGRMS,,78.5,78.5,78.5,Solar Photovoltaic,SUN,PV,4,2024,"(V) Under construction, more than 50 percent complete",30.437172,-89.502900
64743,PPM Solar LLC,66572,Highpeak Solar 1,Map,Map,TX,Howard,ERCO,IPP Non-CHP,HPKS1,,10.0,10.0,10.0,Solar Photovoltaic,SUN,PV,4,2024,"(U) Under construction, less than or equal to 50 percent complete",32.494346,-101.276600
65625,Sunlight Storage II,66575,Sunlight Storage II,Map,Map,CA,Riverside,CISO,IPP Non-CHP,SUNS2,,230.0,230.0,230.0,Batteries,MWH,BA,4,2024,"(V) Under construction, more than 50 percent complete",33.809536,-115.793900
63082,ProEnergy Services,66604,Remy Jade Power Station,Map,Map,TX,Harris,ERCO,IPP Non-CHP,CTG-1,,60.5,44.5,49.8,Natural Gas Fired Combustion Turbine,NG,GT,4,2024,"(V) Under construction, more than 50 percent complete",29.848372,-95.016400
63082,ProEnergy Services,66604,Remy Jade Power Station,Map,Map,TX,Harris,ERCO,IPP Non-CHP,CTG-2,,60.5,44.5,49.8,Natural Gas Fired Combustion Turbine,NG,GT,4,2024,"(V) Under construction, more than 50 percent complete",29.848372,-95.016400
63082,ProEnergy Services,66604,Remy Jade Power Station,Map,Map,TX,Harris,ERCO,IPP Non-CHP,CTG-3,,60.5,44.5,49.8,Natural Gas Fired Combustion Turbine,NG,GT,4,2024,"(V) Under construction, more than 50 percent complete",29.848372,-95.016400
63082,ProEnergy Services,66604,Remy Jade Power Station,Map,Map,TX,Harris,ERCO,IPP Non-CHP,CTG-4,,60.5,44.5,49.8,Natural Gas Fired Combustion Turbine,NG,GT,4,2024,"(V) Under construction, more than 50 percent complete",29.848372,-95.016400
63082,ProEnergy Services,66604,Remy Jade Power Station,Map,Map,TX,Harris,ERCO,IPP Non-CHP,CTG-5,,60.5,44.5,49.8,Natural Gas Fired Combustion Turbine,NG,GT,4,2024,"(V) Under construction, more than 50 percent complete",29.848372,-95.016400
63082,ProEnergy Services,66604,Remy Jade Power Station,Map,Map,TX,Harris,ERCO,IPP Non-CHP,CTG-6,,60.5,44.5,49.8,Natural Gas Fired Combustion Turbine,NG,GT,4,2024,"(V) Under construction, more than 50 percent complete",29.848372,-95.016400
63082,ProEnergy Services,66604,Remy Jade Power Station,Map,Map,TX,Harris,ERCO,IPP Non-CHP,CTG-7,,60.5,44.5,49.8,Natural Gas Fired Combustion Turbine,NG,GT,4,2024,"(V) Under construction, more than 50 percent complete",29.848372,-95.016400
63082,ProEnergy Services,66604,Remy Jade Power Station,Map,Map,TX,Harris,ERCO,IPP Non-CHP,CTG-8,,60.5,44.5,49.8,Natural Gas Fired Combustion Turbine,NG,GT,4,2024,"(V) Under construction, more than 50 percent complete",29.848372,-95.016400
65660,Enchanted Rock,66680,Enchanted Rock Turlock Irrigation District,Map,Map,CA,Stanislaus,TIDC,IPP Non-CHP,UNIT1,,11.7,11.7,11.7,Natural Gas Internal Combustion Engine,NG,IC,4,2024,"(V) Under construction, more than 50 percent complete",37.435853,-121.131000
65660,Enchanted Rock,66680,Enchanted Rock Turlock Irrigation District,Map,Map,CA,Stanislaus,TIDC,IPP Non-CHP,UNIT2,,11.7,11.7,11.7,Natural Gas Internal Combustion Engine,NG,IC,4,2024,"(V) Under construction, more than 50 percent complete",37.435853,-121.131000
65660,Enchanted Rock,66680,Enchanted Rock Turlock Irrigation District,Map,Map,CA,Stanislaus,TIDC,IPP Non-CHP,UNIT3,,11.7,11.7,11.7,Natural Gas Internal Combustion Engine,NG,IC,4,2024,"(V) Under construction, more than 50 percent complete",37.435853,-121.131000
65660,Enchanted Rock,66680,Enchanted Rock Turlock Irrigation District,Map,Map,CA,Stanislaus,TIDC,IPP Non-CHP,UNIT4,,11.7,11.7,11.7,Natural Gas Internal Combustion Engine,NG,IC,4,2024,"(V) Under construction, more than 50 percent complete",37.435853,-121.131000
65720,"Fresno Community Solar Developers, LLC",66715,Fresno Community Solar,Map,Map,CA,Fresno,CISO,IPP Non-CHP,FREPV,,10.0,10.0,10.0,Solar Photovoltaic,SUN,PV,4,2024,"(U) Under construction, less than or equal to 50 percent complete",36.696000,-119.885000
65667,West Shore Solar LLC,66761,West Shore Solar LLC,Map,Map,NY,Ulster,NYIS,IPP Non-CHP,WS,,2.4,2.4,2.4,Solar Photovoltaic,SUN,PV,4,2024,"(V) Under construction, more than 50 percent complete",41.803270,-73.964940
65076,"HEN Infrastructure, L.L.C.",66783,Weil Tract BESS,Map,Map,TX,Nueces,ERCO,IPP Non-CHP,WEILT,,9.9,9.9,9.9,Batteries,MWH,BA,4,2024,"(V) Under construction, more than 50 percent complete",27.796921,-97.487070
65774,"Fence Post Solar Project, LLC",66801,"Fence Post Solar Hybrid Project, LLC",Map,Map,TX,Navarro,ERCO,IPP Non-CHP,FNCBE,,72.0,72.0,72.0,Batteries,MWH,BA,4,2024,"(TS) Construction complete, but not yet in commercial operation",32.072844,-96.223930
65774,"Fence Post Solar Project, LLC",66801,"Fence Post Solar Hybrid Project, LLC",Map,Map,TX,Navarro,ERCO,IPP Non-CHP,FNCPT,,236.0,236.0,236.0,Solar Photovoltaic,SUN,PV,4,2024,"(TS) Construction complete, but not yet in commercial operation",32.072844,-96.223930
65770,NY USLE Copenhagen CR194 LLC,66817,Copenhagen Solar,Map,Map,NY,Lewis,NYIS,IPP Non-CHP,COPE,,4.3,4.3,4.3,Solar Photovoltaic,SUN,PV,4,2024,"(V) Under construction, more than 50 percent complete",43.863103,-75.719310
64872,"Distributed Solar Development, LLC",66828,FFP - NY Game Farm,Map,Map,NY,Jefferson,NYIS,IPP Non-CHP,P5652,,5.0,5.0,5.0,Solar Photovoltaic,SUN,PV,4,2024,"(U) Under construction, less than or equal to 50 percent complete",44.012763,-76.008730
64872,"Distributed Solar Development, LLC",66831,Harrah's Atlantic City - POI 2 (Self Par,Map,Map,NJ,Atlantic,PJM,IPP Non-CHP,P5614,,1.8,1.8,1.8,Solar Photovoltaic,SUN,PV,4,2024,"(V) Under construction, more than 50 percent complete",39.384389,-74.426270
65794,Indiana Crossroads Wind Farm II LLC,66861,Indiana Crossroads Wind Farm II,Map,Map,IN,White,MISO,IPP Non-CHP,GEN01,,201.6,200.0,200.0,Onshore Wind Turbine,WND,WT,4,2024,"(V) Under construction, more than 50 percent complete",40.779357,-87.042110
65783,Hayhurst Texas Solar,66880,Hayhurst Texas Solar,Map,Map,TX,Culberson,ERCO,IPP Non-CHP,HHTX,,24.8,24.8,24.8,Solar Photovoltaic,SUN,PV,4,2024,"(TS) Construction complete, but not yet in commercial operation",31.815992,-104.085300
61980,Valta Energy,66948,"VS BC Pacific Gateway, LLC",Map,Map,CA,Los Angeles,CISO,IPP Non-CHP,VSPRC,,1.4,1.3,1.3,Solar Photovoltaic,SUN,PV,4,2024,"(TS) Construction complete, but not yet in commercial operation",33.853240,-118.296800
65857,Prescott Wind Energy LLC,66952,Prescott Wind Farm,Map,Map,IA,Adams,MISO,IPP Non-CHP,PWE,,56.0,56.0,56.0,Onshore Wind Turbine,WND,WT,4,2024,"(U) Under construction, less than or equal to 50 percent complete",41.121034,-94.605130
65785,"Luminace Sunbeam Development Holdings, LLC",66961,ME Novel Lighthouse - Penobscot,Map,Map,ME,Penobscot,ISNE,IPP Non-CHP,PENOB,,3.0,3.0,3.0,Solar Photovoltaic,SUN,PV,4,2024,"(V) Under construction, more than 50 percent complete",46.000113,-68.455820
65935,Preston Garden LLC,67009,Preston Garden,Map,Map,MN,Renville,MISO,IPP Non-CHP,PRSTN,,1.0,1.0,1.0,Solar Photovoltaic,SUN,PV,4,2024,"(V) Under construction, more than 50 percent complete",44.535906,-94.911330
62759,National Grid Renewables,67018,Wild Springs,Map,Map,SD,Pennington,WACM,IPP Non-CHP,WLDSP,,128.0,128.0,128.0,Solar Photovoltaic,SUN,PV,4,2024,"(TS) Construction complete, but not yet in commercial operation",44.070000,-102.840000
65937,"CPV Stagecoach Solar, LLC",67021,CPV Stagecoach Solar,Map,Map,GA,Macon,SOCO,IPP Non-CHP,SC1,,80.0,80.0,80.0,Solar Photovoltaic,SUN,PV,4,2024,"(V) Under construction, more than 50 percent complete",32.197779,-84.069310
65952,"Henry Gibson Solar, LLC",67029,Henry Gibson Solar,Map,Map,NC,Scotland,DUK,IPP Non-CHP,HGS,,5.0,5.0,5.0,Solar Photovoltaic,SUN,PV,4,2024,"(V) Under construction, more than 50 percent complete",34.780905,-79.569570
65958,"SL Sherman, LLC",67034,NY SHERMAN 176 W MAIN ST - SL 1,Map,Map,NY,Chautauqua,NYIS,IPP Non-CHP,21104,,4.7,4.7,4.7,Solar Photovoltaic,SUN,PV,4,2024,"(TS) Construction complete, but not yet in commercial operation",42.156051,-79.601610
60025,Greenbacker Renewable Energy Corporation,67056,Ledgeview,Map,Map,WI,Fond Du Lac,MISO,IPP Non-CHP,708,,5.0,5.0,5.0,Solar Photovoltaic,SUN,PV,4,2024,"(V) Under construction, more than 50 percent complete",43.779832,-88.346530
9417,Interstate Power and Light Co,67096,Fareway Customer Hosted 1 MW Solar,Map,Map,IA,Boone,MISO,Electric Utility,PV1,,1.0,1.0,1.0,Solar Photovoltaic,SUN,PV,4,2024,"(TS) Construction complete, but not yet in commercial operation",42.063182,-93.856640
9417,Interstate Power and Light Co,67098,ISU Customer Hosted 1MW Solar Project,Map,Map,IA,Story,MISO,Electric Utility,PV1,,1.4,1.4,1.4,Solar Photovoltaic,SUN,PV,4,2024,"(TS) Construction complete, but not yet in commercial operation",41.979194,-93.656250
66003,Reactivate,67106,"Gooseberry Solar, LLC",Map,Map,IL,Cook,PJM,IPP Non-CHP,GEN1,,2.0,2.0,2.0,Solar Photovoltaic,SUN,PV,4,2024,"(V) Under construction, more than 50 percent complete",41.520824,-87.572280
66003,Reactivate,67107,"Monee Solar 1, LLC",Map,Map,IL,Will,PJM,IPP Non-CHP,GEN1,,2.0,2.0,2.0,Solar Photovoltaic,SUN,PV,4,2024,"(V) Under construction, more than 50 percent complete",41.383165,-87.775100
66003,Reactivate,67108,"Mulberry Solar, LLC",Map,Map,IL,Madison,PJM,IPP Non-CHP,GEN1,,2.0,2.0,2.0,Solar Photovoltaic,SUN,PV,4,2024,"(V) Under construction, more than 50 percent complete",38.729000,-90.135000
66003,Reactivate,67113,SSC Oswego II LLC,Map,Map,NY,Oswego,NYIS,IPP Non-CHP,GEN1,,4.8,4.8,4.8,Solar Photovoltaic,SUN,PV,4,2024,"(V) Under construction, more than 50 percent complete",43.470642,-76.471920
66003,Reactivate,67114,Torrence Ave Solar 1 LLC,Map,Map,IL,Cook,PJM,IPP Non-CHP,GEN1,,2.0,2.0,2.0,Solar Photovoltaic,SUN,PV,4,2024,"(V) Under construction, more than 50 percent complete",41.496000,-87.560000
66003,Reactivate,67115,"North Cottage Grove Solar 1, LLC",Map,Map,IL,Cook,PJM,IPP Non-CHP,GEN1,,2.0,2.0,2.0,Solar Photovoltaic,SUN,PV,4,2024,"(V) Under construction, more than 50 percent complete",41.526376,-87.600760
17650,Southern Power Co,67147,South Cheyenne Solar,Map,Map,WY,Laramie,WACM,IPP Non-CHP,SCHY,,150.0,150.0,150.0,Solar Photovoltaic,SUN,PV,4,2024,"(U) Under construction, less than or equal to 50 percent complete",41.027211,-104.776000
60025,Greenbacker Renewable Energy Corporation,67152,N Baker Road 2,Map,Map,IL,Stephenson,PJM,IPP Non-CHP,680,,2.0,2.0,2.0,Solar Photovoltaic,SUN,PV,4,2024,"(U) Under construction, less than or equal to 50 percent complete",42.435916,-89.904730
60025,Greenbacker Renewable Energy Corporation,67153,N Baker Road,Map,Map,IL,Stephenson,PJM,IPP Non-CHP,679,,2.0,2.0,2.0,Solar Photovoltaic,SUN,PV,4,2024,"(U) Under construction, less than or equal to 50 percent complete",42.435913,-89.903520
66054,"Solar Star Bear Creek, LLC",67169,Bear Creek Solar (CA),Map,Map,CA,Contra Costa,CISO,Commercial Non-CHP,EBMUD,,5.0,5.0,3.8,Solar Photovoltaic,SUN,PV,4,2024,"(TS) Construction complete, but not yet in commercial operation",37.919197,-122.186300
66050,Solar Star Prime 4 LLC,67170,Amazon SAN3 Solar Project,Map,Map,CA,San Diego,CISO,IPP Non-CHP,ASBA,,2.4,2.4,2.4,Batteries,MWH,BA,4,2024,"(V) Under construction, more than 50 percent complete",32.566208,-116.933500
66050,Solar Star Prime 4 LLC,67170,Amazon SAN3 Solar Project,Map,Map,CA,San Diego,CISO,IPP Non-CHP,ASSP,,4.6,4.6,3.9,Solar Photovoltaic,SUN,PV,4,2024,"(V) Under construction, more than 50 percent complete",32.566208,-116.933500
66049,"Foxhound Solar, LLC",67171,Foxhound,Map,Map,VA,Halifax,PJM,IPP Non-CHP,F2024,,83.0,83.0,83.0,Solar Photovoltaic,SUN,PV,4,2024,"(V) Under construction, more than 50 percent complete",36.875897,-78.741870
66120,McCormick NY CSG LLC,67248,McCormick NY CSG LLC,Map,Map,NY,Allegany,NYIS,IPP Non-CHP,MCCOR,,5.0,5.0,5.0,Solar Photovoltaic,SUN,PV,4,2024,"(TS) Construction complete, but not yet in commercial operation",42.153000,-77.806000
66131,"Surbrook Solar, LLC",67267,"Surbrook Solar, LLC",Map,Map,MI,Jackson,MISO,IPP Non-CHP,SUR10,,20.0,20.0,20.0,Solar Photovoltaic,SUN,PV,4,2024,"(TS) Construction complete, but not yet in commercial operation",42.388100,-84.490200
12303,Merck & Co Inc-West Point,52149,West Point (PA),Map,Map,PA,Montgomery,PJM,Industrial CHP,GEN19,,1.0,1.0,1.0,Natural Gas Internal Combustion Engine,NG,IC,5,2024,"(V) Under construction, more than 50 percent complete",40.217963,-75.298820
13491,New York University,54808,New York University Central Plant,Map,Map,NY,New York,NYIS,Commercial CHP,DE1,,2.5,2.5,2.5,Petroleum Liquids,DFO,IC,5,2024,"(V) Under construction, more than 50 percent complete",40.789900,-73.923300
13491,New York University,54808,New York University Central Plant,Map,Map,NY,New York,NYIS,Commercial CHP,GR1,,2.6,2.6,2.6,Natural Gas Internal Combustion Engine,NG,IC,5,2024,"(V) Under construction, more than 50 percent complete",40.789900,-73.923300
61610,"Delaware River Solar, LLC",62520,State Route 64N Community Solar Farm,Map,Map,NY,Ontario,NYIS,IPP Non-CHP,1089,,1.2,1.2,1.2,Solar Photovoltaic,SUN,PV,5,2024,(T) Regulatory approvals received. Not under construction,42.915000,-77.454000
49893,Invenergy Services LLC,63194,Delilah Solar Energy LLC,Map,Map,TX,Red River,ERCO,IPP Non-CHP,GEN1,,300.0,300.0,300.0,Solar Photovoltaic,SUN,PV,5,2024,"(TS) Construction complete, but not yet in commercial operation",33.284418,-95.163560
58970,"Ecoplexus, Inc",63870,Camp San Luis Obispo,Map,Map,CA,San Luis Obispo,CISO,IPP Non-CHP,CPSLO,,1.2,1.2,1.2,Solar Photovoltaic,SUN,PV,5,2024,"(TS) Construction complete, but not yet in commercial operation",35.322043,-120.732300
61012,AES Distributed Energy,64256,AES Maui Kuihelani Solar Hybrid,Map,Map,HI,Maui,HECO,IPP Non-CHP,KLNIB,,60.0,60.0,60.0,Batteries,MWH,BA,5,2024,"(V) Under construction, more than 50 percent complete",20.843900,-156.485000
61012,AES Distributed Energy,64256,AES Maui Kuihelani Solar Hybrid,Map,Map,HI,Maui,HECO,IPP Non-CHP,KULNI,,60.0,60.0,60.0,Solar Photovoltaic,SUN,PV,5,2024,"(V) Under construction, more than 50 percent complete",20.843900,-156.485000
65600,AP Sunray LLC,64258,AP Sunray LLC,Map,Map,TX,Uvalde,ERCO,IPP Non-CHP,OCISR,,200.0,200.0,200.0,Solar Photovoltaic,SUN,PV,5,2024,"(U) Under construction, less than or equal to 50 percent complete",29.291845,-99.612370
64306,"Elektron Solar, LLC",64739,"Elektron Solar, LLC",Map,Map,UT,Tooele,PACE,IPP Non-CHP,ELKS,,80.0,80.0,80.0,Solar Photovoltaic,SUN,PV,5,2024,"(V) Under construction, more than 50 percent complete",40.868271,-112.703400
7140,Georgia Power Co,65018,Mossy Branch Battery Facility,Map,Map,GA,Talbot,SOCO,Electric Utility,BESS,,65.0,65.0,65.0,Batteries,MWH,BA,5,2024,"(V) Under construction, more than 50 percent complete",32.803569,-84.660390
62842,"Lightsource Renewable Energy Asset Management, LLC",65079,Cottontail Solar 4,Map,Map,PA,Northumberland,PJM,IPP Non-CHP,PACT4,,20.0,20.0,20.0,Solar Photovoltaic,SUN,PV,5,2024,"(V) Under construction, more than 50 percent complete",40.988822,-76.792920
61514,"Agilitas Energy, LLC",65239,"AE-ESS NWS 1, LLC",Map,Map,NY,Queens,NYIS,IPP Non-CHP,NWS,,5.0,4.9,4.9,Batteries,MWH,BA,5,2024,"(U) Under construction, less than or equal to 50 percent complete",40.740410,-73.951070
17609,Southern California Edison Co,65456,Separator (Etiwanda) BESS,Map,Map,CA,San Bernardino,CISO,Electric Utility,SEPAR,,112.5,112.5,112.5,Batteries,MWH,BA,5,2024,"(V) Under construction, more than 50 percent complete",34.092110,-117.534000
17609,Southern California Edison Co,65457,Cathode (Hinson) BESS,Map,Map,CA,Ventura,CISO,Electric Utility,CATH1,,100.0,100.0,100.0,Batteries,MWH,BA,5,2024,"(V) Under construction, more than 50 percent complete",33.776300,-118.200300
17609,Southern California Edison Co,65457,Cathode (Hinson) BESS,Map,Map,CA,Ventura,CISO,Electric Utility,CATH2,,100.0,100.0,100.0,Batteries,MWH,BA,5,2024,"(V) Under construction, more than 50 percent complete",33.776300,-118.200300
62856,"Forefront Power, LLC",65616,CA - Amazon - SMF6,Map,Map,CA,Sacramento,CISO,IPP Non-CHP,20031,,2.6,2.6,2.6,Solar Photovoltaic,SUN,PV,5,2024,"(U) Under construction, less than or equal to 50 percent complete",38.750000,-121.550000
64937,Hecate Energy Desert Storage 1 LLC,65635,Hecate Energy Desert Storage 1 LLC,Map,Map,CA,Riverside,CISO,IPP Non-CHP,HEDS1,,10.0,10.0,10.0,Batteries,MWH,BA,5,2024,"(V) Under construction, more than 50 percent complete",33.807900,-116.494000
64935,"Ortega Grid, LLC",65656,"Ortega Grid, LLC",Map,Map,CA,Riverside,CISO,IPP Non-CHP,HEORG,,20.0,20.0,20.0,Batteries,MWH,BA,5,2024,"(V) Under construction, more than 50 percent complete",33.683540,-117.328400
64978,Hecate Grid Carris Storage 1 LLC,65733,Carris Storage I,Map,Map,CA,Riverside,CISO,IPP Non-CHP,HECAR,,10.0,10.0,10.0,Batteries,MWH,BA,5,2024,"(V) Under construction, more than 50 percent complete",33.807900,-116.494000
65087,"SMS DC CS01B, LLC",65896,Gallaudet Uni Community Solar,Map,Map,DC,District of Columbia,PJM,IPP Non-CHP,GUCS1,,2.6,2.6,2.6,Solar Photovoltaic,SUN,PV,5,2024,"(V) Under construction, more than 50 percent complete",38.907240,-76.993720
62842,"Lightsource Renewable Energy Asset Management, LLC",65936,Honeysuckle Solar Farm,Map,Map,IN,St Joseph,PJM,IPP Non-CHP,INHS1,,150.0,150.0,150.0,Solar Photovoltaic,SUN,PV,5,2024,"(V) Under construction, more than 50 percent complete",41.719000,-86.464000
65112,"TotalEnergies Distributed Generation, LLC",65940,Shasta College PH2 Solar Project,Map,Map,CA,Shasta,CISO,Commercial Non-CHP,SCSP1,,1.5,1.3,1.1,Solar Photovoltaic,SUN,PV,5,2024,"(TS) Construction complete, but not yet in commercial operation",40.625240,-122.314000
65112,"TotalEnergies Distributed Generation, LLC",65940,Shasta College PH2 Solar Project,Map,Map,CA,Shasta,CISO,Commercial Non-CHP,SCSPB,,0.5,0.5,0.5,Batteries,MWH,BA,5,2024,"(TS) Construction complete, but not yet in commercial operation",40.625240,-122.314000
65211,"Blackwater Solar, LLC",66025,Blackwater Solar,Map,Map,GA,Ware,SOCO,IPP Non-CHP,GA-02,,80.0,80.0,80.0,Solar Photovoltaic,SUN,PV,5,2024,"(V) Under construction, more than 50 percent complete",31.394022,-82.625050
65281,"Horus Louisiana 1, LLC",66111,Elizabeth Solar Plant,Map,Map,LA,Allen,MISO,IPP Non-CHP,US199,,142.8,125.0,125.0,Solar Photovoltaic,SUN,PV,5,2024,"(V) Under construction, more than 50 percent complete",30.819810,-92.971760
65282,Prairie Switch Wind LLC,66123,Prairie Switch Wind LLC,Map,Map,TX,Wharton,ERCO,IPP Non-CHP,PSW1,,163.2,163.2,163.2,Onshore Wind Turbine,WND,WT,5,2024,"(U) Under construction, less than or equal to 50 percent complete",29.091900,-96.090000
65347,"Pearl River Solar Park, LLC",66239,Pearl River Solar Park LLC,Map,Map,MS,Scott,MISO,IPP Non-CHP,GEN01,,175.0,175.0,175.0,Solar Photovoltaic,SUN,PV,5,2024,"(V) Under construction, more than 50 percent complete",32.550998,-89.730140
65361,CT Cutlass II Solar LLC,66262,Rowland Solar II,Map,Map,TX,Fort Bend,ERCO,IPP Non-CHP,SAREN,,202.8,200.0,200.0,Solar Photovoltaic,SUN,PV,5,2024,"(V) Under construction, more than 50 percent complete",29.390000,-95.780000
65380,"Steel Solar, LLC",66267,Steel Solar LLC,Map,Map,UT,Box Elder,WAUW,IPP Non-CHP,SS8,,80.0,80.0,80.0,Solar Photovoltaic,SUN,PV,5,2024,"(TS) Construction complete, but not yet in commercial operation",41.886050,-112.181700
65405,Woodruff County Solar,66282,Woodruff County Solar,Map,Map,AR,Woodruff,MISO,IPP Non-CHP,PV1,,122.0,122.0,122.0,Solar Photovoltaic,SUN,PV,5,2024,"(V) Under construction, more than 50 percent complete",35.256256,-91.340190
9191,Idaho Power Co,66327,Elmore BESS,Map,Map,ID,Elmore,IPCO,Electric Utility,1,,4.0,4.0,4.0,Batteries,MWH,BA,5,2024,"(U) Under construction, less than or equal to 50 percent complete",43.177560,-115.716700
9191,Idaho Power Co,66328,Filer BESS,Map,Map,ID,Twin Falls,IPCO,Electric Utility,1,,2.0,2.0,2.0,Batteries,MWH,BA,5,2024,"(U) Under construction, less than or equal to 50 percent complete",42.571560,-114.595100
9191,Idaho Power Co,66329,Melba BESS,Map,Map,ID,Canyon,IPCO,Electric Utility,1,,2.0,2.0,2.0,Batteries,MWH,BA,5,2024,"(U) Under construction, less than or equal to 50 percent complete",43.372252,-116.560900
9191,Idaho Power Co,66330,Weiser BESS,Map,Map,ID,Washington,IPCO,Electric Utility,1,,3.0,3.0,3.0,Batteries,MWH,BA,5,2024,"(U) Under construction, less than or equal to 50 percent complete",44.247530,-116.985300
64994,SolRiver Capital LLC,66378,Auburn Solar LLC (CSG),Map,Map,OR,Clackamas,PGE,IPP Non-CHP,PV1,,2.9,2.9,2.9,Solar Photovoltaic,SUN,PV,5,2024,"(TS) Construction complete, but not yet in commercial operation",45.392661,-122.342700
65173,United States Solar Corporation,66432,USS Fruita Solar LLC,Map,Map,CO,Mesa,WACM,IPP Non-CHP,USGBS,,2.0,2.0,2.0,Solar Photovoltaic,SUN,PV,5,2024,"(U) Under construction, less than or equal to 50 percent complete",39.091940,-108.423100
65173,United States Solar Corporation,66436,USS Cogburn Solar LLC,Map,Map,CO,Mesa,PSCO,IPP Non-CHP,USCOG,,2.4,2.4,2.4,Solar Photovoltaic,SUN,PV,5,2024,(T) Regulatory approvals received. Not under construction,40.464272,-104.610200
40577,"American Mun Power-Ohio, Inc",66452,Mifflinburg PA BTM,Map,Map,PA,Union,PJM,Electric Utility,PB1,,2.7,2.7,2.7,Petroleum Liquids,DFO,IC,5,2024,"(V) Under construction, more than 50 percent complete",40.911223,-77.044970
40577,"American Mun Power-Ohio, Inc",66452,Mifflinburg PA BTM,Map,Map,PA,Union,PJM,Electric Utility,PB2,,2.7,2.7,2.7,Petroleum Liquids,DFO,IC,5,2024,"(V) Under construction, more than 50 percent complete",40.911223,-77.044970
65551,"Magruder Solar, LLC",66495,Magruder Solar,Map,Map,NY,Ulster,NYIS,IPP Non-CHP,PV1,,5.0,5.0,5.0,Solar Photovoltaic,SUN,PV,5,2024,"(V) Under construction, more than 50 percent complete",41.602936,-74.137700
65564,"Catalyze Dallas 7750 Dynasty Drive Microgrid, LLC",66516,TX Dallas 7750 Dynasty Drive,Map,Map,TX,Dallas,ERCO,IPP Non-CHP,19500,,2.3,2.3,2.3,Solar Photovoltaic,SUN,PV,5,2024,"(TS) Construction complete, but not yet in commercial operation",32.652269,-96.755770
64743,PPM Solar LLC,66571,BKV Ponder Solar 1,Map,Map,TX,Denton,ERCO,IPP Non-CHP,BKVP1,,2.5,2.5,2.5,Solar Photovoltaic,SUN,PV,5,2024,(T) Regulatory approvals received. Not under construction,33.155767,-97.254640
65626,"San Juan Solar I, LLC",66574,San Juan Solar I,Map,Map,NM,San Juan,PNM,IPP Non-CHP,SJSS,,100.0,100.0,100.0,Batteries,MWH,BA,5,2024,"(V) Under construction, more than 50 percent complete",36.842533,-108.351400
65643,Cald BESS LLC,66617,Cald BESS,Map,Map,CA,Los Angeles,CISO,IPP Non-CHP,1,,100.0,100.0,100.0,Batteries,MWH,BA,5,2024,"(V) Under construction, more than 50 percent complete",33.955872,-118.232100
65660,Enchanted Rock,66638,Enchanted Rock Lodi,Map,Map,CA,San Joaquin,CISO,IPP Non-CHP,LODI,,48.0,48.0,48.0,Natural Gas Internal Combustion Engine,NG,IC,5,2024,"(V) Under construction, more than 50 percent complete",38.147724,-121.299700
65694,"Bright Arrow Solar, LLC",66688,"Bright Arrow Solar, LLC",Map,Map,TX,Hopkins,ERCO,IPP Non-CHP,BASS,,300.0,300.0,300.0,Solar Photovoltaic,SUN,PV,5,2024,"(U) Under construction, less than or equal to 50 percent complete",33.223920,-95.730770
60025,Greenbacker Renewable Energy Corporation,66735,Kosa,Map,Map,NY,Allegany,NYIS,IPP Non-CHP,783,,1.5,1.5,1.5,Solar Photovoltaic,SUN,PV,5,2024,"(V) Under construction, more than 50 percent complete",42.068818,-77.807420
60025,Greenbacker Renewable Energy Corporation,66750,Mahany,Map,Map,NY,Steuben,NYIS,IPP Non-CHP,782,,3.0,3.0,3.0,Solar Photovoltaic,SUN,PV,5,2024,"(V) Under construction, more than 50 percent complete",42.469941,-77.695410
64904,AES Clean Energy,66773,Raceway Solar & Storage,Map,Map,CA,Los Angeles,CISO,IPP Non-CHP,RCWYB,,80.0,80.0,80.0,Batteries,MWH,BA,5,2024,"(V) Under construction, more than 50 percent complete",34.842388,-118.286200
64904,AES Clean Energy,66773,Raceway Solar & Storage,Map,Map,CA,Los Angeles,CISO,IPP Non-CHP,RCWYS,,125.0,125.0,125.0,Solar Photovoltaic,SUN,PV,5,2024,"(V) Under construction, more than 50 percent complete",34.842388,-118.286200
64872,"Distributed Solar Development, LLC",66800,Bishop Ranch - BR 8-P,Map,Map,CA,Contra Costa,CISO,IPP Non-CHP,4976,,1.0,1.0,1.0,Solar Photovoltaic,SUN,PV,5,2024,"(V) Under construction, more than 50 percent complete",37.768190,-121.966600
64872,"Distributed Solar Development, LLC",66800,Bishop Ranch - BR 8-P,Map,Map,CA,Contra Costa,CISO,IPP Non-CHP,4976B,,0.5,0.5,0.5,Batteries,MWH,BA,5,2024,"(V) Under construction, more than 50 percent complete",37.768190,-121.966600
65775,"RPCA Solar 1, LLC",66809,Avenue 26 Solar,Map,Map,CA,Madera,CISO,IPP Non-CHP,A26P1,,2.6,2.6,2.6,Solar Photovoltaic,SUN,PV,5,2024,"(U) Under construction, less than or equal to 50 percent complete",37.125754,-120.178800
65775,"RPCA Solar 1, LLC",66809,Avenue 26 Solar,Map,Map,CA,Madera,CISO,IPP Non-CHP,A26P2,,5.0,5.0,5.0,Solar Photovoltaic,SUN,PV,5,2024,"(U) Under construction, less than or equal to 50 percent complete",37.125754,-120.178800
64872,"Distributed Solar Development, LLC",66813,Caesar's Atlantic City - POI 1 (Colosseu,Map,Map,NJ,Atlantic,PJM,IPP Non-CHP,P5377,,1.4,1.4,1.4,Solar Photovoltaic,SUN,PV,5,2024,"(V) Under construction, more than 50 percent complete",39.355676,-74.435520
64872,"Distributed Solar Development, LLC",66830,Harrah's Atlantic City - POI 1 (Meeting,Map,Map,NJ,Atlantic,PJM,IPP Non-CHP,P5376,,2.3,2.3,2.3,Solar Photovoltaic,SUN,PV,5,2024,"(U) Under construction, less than or equal to 50 percent complete",39.384389,-74.426270
65793,"DG Empire Lumen 2023, LLC",66856,NY Sorrell Hill II CSG,Map,Map,NY,Onondaga,NYIS,IPP Non-CHP,NGSH2,,5.0,5.0,5.0,Solar Photovoltaic,SUN,PV,5,2024,"(TS) Construction complete, but not yet in commercial operation",43.146720,-76.354670
65796,"North Fork Solar Project, LLC",66866,North Fork Solar Project,Map,Map,OK,Kiowa,SWPP,IPP Non-CHP,NFORK,,120.0,120.0,120.0,Solar Photovoltaic,SUN,PV,5,2024,"(V) Under construction, more than 50 percent complete",34.617810,-98.982610
65799,"Enel Green Power Estonian Solar Project, LLC",66872,"Estonian Solar Project, LLC",Map,Map,TX,Delta,ERCO,IPP Non-CHP,SOLAR,,204.5,204.5,204.5,Solar Photovoltaic,SUN,PV,5,2024,"(TS) Construction complete, but not yet in commercial operation",33.457143,-95.667900
65806,Elk Street Solar LLC,66886,Elk Street Solar,Map,Map,NY,Erie,NYIS,IPP Non-CHP,ES,,2.4,2.4,2.4,Solar Photovoltaic,SUN,PV,5,2024,"(V) Under construction, more than 50 percent complete",42.850000,-78.850000
65823,"Myrtle Solar, LLC",66910,"Myrtle Solar, LLC",Map,Map,TX,Brazoria,ERCO,IPP Non-CHP,MYR,,313.0,313.0,313.0,Solar Photovoltaic,SUN,PV,5,2024,"(TS) Construction complete, but not yet in commercial operation",29.228486,-95.427440
65830,"Myrtle Storage, LLC",66913,Myrtle Storage,Map,Map,TX,Brazoria,ERCO,IPP Non-CHP,MYRST,,150.0,150.0,150.0,Batteries,MWH,BA,5,2024,"(TS) Construction complete, but not yet in commercial operation",29.227753,-95.428060
65831,"Danish Fields Solar, LLC",66914,"Danish Fields Solar, LLC",Map,Map,TX,Wharton,ERCO,IPP Non-CHP,DAN,,600.0,600.0,600.0,Solar Photovoltaic,SUN,PV,5,2024,"(V) Under construction, more than 50 percent complete",29.013637,-96.220540
65832,"Cottonwood Bayou Solar, LLC",66915,Cottonwood Bayou Solar,Map,Map,TX,Brazoria,ERCO,IPP Non-CHP,CTW,,350.0,350.0,350.0,Solar Photovoltaic,SUN,PV,5,2024,"(V) Under construction, more than 50 percent complete",29.263123,-95.258000
65833,"Danish Fields Storage, LLC",66916,Danish Fields Storage,Map,Map,TX,Wharton,ERCO,IPP Non-CHP,DANST,,150.0,150.0,150.0,Batteries,MWH,BA,5,2024,"(TS) Construction complete, but not yet in commercial operation",29.013637,-96.220540
64904,AES Clean Energy,66947,Mannys Corners Solar 1 LLC,Map,Map,NY,Montgomery,NYIS,IPP Non-CHP,MANNY,,4.9,4.9,4.9,Solar Photovoltaic,SUN,PV,5,2024,"(TS) Construction complete, but not yet in commercial operation",42.964000,-74.144400
65863,"Three Corners Solar, LLC",66955,Three Corners Solar,Map,Map,ME,Waldo,ISNE,IPP Non-CHP,18099,,110.0,110.0,110.0,Solar Photovoltaic,SUN,PV,5,2024,"(U) Under construction, less than or equal to 50 percent complete",44.612621,-69.451820
65173,United States Solar Corporation,66972,Spring Prairie Solar LLC,Map,Map,MN,Clay,MISO,IPP Non-CHP,SPRPR,,1.0,1.0,1.0,Solar Photovoltaic,SUN,PV,5,2024,"(V) Under construction, more than 50 percent complete",46.977300,-96.479000
65928,Atrisco Solar LLC,67003,Atrisco Solar LLC,Map,Map,NM,Bernalillo,PNM,IPP Non-CHP,ATRPV,,300.0,300.0,300.0,Solar Photovoltaic,SUN,PV,5,2024,"(V) Under construction, more than 50 percent complete",35.189061,-106.860500
61944,MN8 Energy LLC,67011,Dynamic - Wales Leeds Junction Road,Map,Map,ME,Androscoggin,ISNE,IPP Non-CHP,GEN1,,4.5,4.5,4.5,Solar Photovoltaic,SUN,PV,5,2024,"(V) Under construction, more than 50 percent complete",44.199291,-70.068000
62759,National Grid Renewables,67019,"Copperhead Solar, LLC",Map,Map,TX,McLennan,ERCO,IPP Non-CHP,CHSLR,,150.0,150.0,150.0,Solar Photovoltaic,SUN,PV,5,2024,"(TS) Construction complete, but not yet in commercial operation",31.450000,-96.860000
65955,"Solitude Solar Russell County Rd 21 Microgrid, LLC",67031,NY Hermon 1040 County Rd 21,Map,Map,NY,St. Lawrence,NYIS,IPP Non-CHP,20144,,2.2,2.2,2.2,Solar Photovoltaic,SUN,PV,5,2024,"(V) Under construction, more than 50 percent complete",44.432000,-75.210000
65960,"DG Empire Sun, LLC",67045,NY Avon I CSG,Map,Map,NY,Livingston,NYIS,IPP Non-CHP,AVON1,,5.0,5.0,5.0,Solar Photovoltaic,SUN,PV,5,2024,"(TS) Construction complete, but not yet in commercial operation",42.900200,-77.729500
65968,"Yellow Pine Solar II, LLC",67091,Yellow Pine II,Map,Map,NV,Clark,NEVP,IPP Non-CHP,YP2AB,,53.0,53.0,53.0,Batteries,MWH,BA,5,2024,"(V) Under construction, more than 50 percent complete",36.075505,-115.791300
65968,"Yellow Pine Solar II, LLC",67091,Yellow Pine II,Map,Map,NV,Clark,NEVP,IPP Non-CHP,YP2AP,,60.0,60.0,60.0,Solar Photovoltaic,SUN,PV,5,2024,"(V) Under construction, more than 50 percent complete",36.075505,-115.791300
65968,"Yellow Pine Solar II, LLC",67091,Yellow Pine II,Map,Map,NV,Clark,NEVP,IPP Non-CHP,YP2BB,,32.0,32.0,32.0,Batteries,MWH,BA,5,2024,"(V) Under construction, more than 50 percent complete",36.075505,-115.791300
65965,"Crow Creek Solar, LLC",67092,Paulsell,Map,Map,CA,Stanislaus,CISO,IPP Non-CHP,PSLBA,,15.0,15.0,15.0,Batteries,MWH,BA,5,2024,"(U) Under construction, less than or equal to 50 percent complete",37.374065,-121.135200
65965,"Crow Creek Solar, LLC",67092,Paulsell,Map,Map,CA,Stanislaus,CISO,IPP Non-CHP,PSLPV,,20.0,20.0,20.0,Solar Photovoltaic,SUN,PV,5,2024,"(U) Under construction, less than or equal to 50 percent complete",37.374065,-121.135200
9417,Interstate Power and Light Co,67097,Hy-Vee Customer Hosted 2.25MW Solar,Map,Map,IA,Lucas,MISO,Electric Utility,PV1,,2.3,2.3,2.3,Solar Photovoltaic,SUN,PV,5,2024,"(TS) Construction complete, but not yet in commercial operation",41.035595,-93.330990
9417,Interstate Power and Light Co,67099,Perry Customer Hosted 1MW Solar Project,Map,Map,IA,Dallas,MISO,Electric Utility,PV1,,1.0,1.0,1.0,Solar Photovoltaic,SUN,PV,5,2024,"(TS) Construction complete, but not yet in commercial operation",41.843474,-94.120340
66110,"Anemoi Energy Storage, LLC",67236,Anemoi Energy Storage,Map,Map,TX,Hidalgo,ERCO,IPP Non-CHP,ANEM1,,200.0,200.0,200.0,Batteries,MWH,BA,5,2024,"(V) Under construction, more than 50 percent complete",26.450000,-98.480000
66119,Mesa Wind Repower,67247,Mesa Wind Repower,Map,Map,CA,Riverside,CISO,IPP Non-CHP,MESA,,30.0,30.0,30.0,Onshore Wind Turbine,WND,WT,5,2024,"(TS) Construction complete, but not yet in commercial operation",33.946100,-116.676900
60025,Greenbacker Renewable Energy Corporation,67276,Upland,Map,Map,MA,Plymouth,ISNE,IPP Non-CHP,703,,5.0,5.0,5.0,Solar Photovoltaic,SUN,PV,5,2024,"(U) Under construction, less than or equal to 50 percent complete",41.964076,-70.788770
6775,Village of Freeport - (NY),2678,Plant No 1 Freeport,Map,Map,NY,Nassau,NYIS,Electric Utility,ENG13,,3.0,3.0,3.0,Landfill Gas,LFG,IC,6,2024,"(U) Under construction, less than or equal to 50 percent complete",40.656100,-73.592200
17845,City of Springville - (UT),7028,Whitehead,Map,Map,UT,Utah,PACE,Electric Utility,K3CAT,,2.5,2.5,2.5,Natural Gas Internal Combustion Engine,NG,IC,6,2024,"(U) Under construction, less than or equal to 50 percent complete",40.181700,-111.620300
17845,City of Springville - (UT),7028,Whitehead,Map,Map,UT,Utah,PACE,Electric Utility,K4CAT,,2.5,2.5,2.5,Natural Gas Internal Combustion Engine,NG,IC,6,2024,"(U) Under construction, less than or equal to 50 percent complete",40.181700,-111.620300
17845,City of Springville - (UT),7028,Whitehead,Map,Map,UT,Utah,PACE,Electric Utility,K5CAT,,2.5,2.5,2.5,Natural Gas Internal Combustion Engine,NG,IC,6,2024,"(U) Under construction, less than or equal to 50 percent complete",40.181700,-111.620300
16534,Sacramento Municipal Util Dist,7526,Solano Wind,Map,Map,CA,Solano,CISO,Electric Utility,4,,85.5,85.5,85.5,Onshore Wind Turbine,WND,WT,6,2024,"(V) Under construction, more than 50 percent complete",38.116415,-121.769000
12320,Merck & Co Inc,52148,Elkton,Map,Map,VA,Rockingham,PJM,Industrial CHP,GEN8,,2.0,2.0,2.0,Natural Gas Internal Combustion Engine,NG,IC,6,2024,"(V) Under construction, more than 50 percent complete",38.383600,-78.652800
5347,Dow Chemical Co,55419,Plaquemine Cogeneration Plant,Map,Map,LA,Iberville,MISO,Industrial CHP,ST6,,48.9,48.9,48.9,Natural Gas Fired Combined Cycle,NG,CA,6,2024,"(V) Under construction, more than 50 percent complete",30.321700,-91.234700
55934,City of Stockton MUD,56134,Regional Wastewater Control Facility,Map,Map,CA,San Joaquin,CISO,Commercial CHP,0601,,3.0,3.0,3.0,Petroleum Liquids,DFO,IC,6,2024,"(V) Under construction, more than 50 percent complete",37.936900,-121.329400
56789,TBE Montgomery LLC,57472,TBE-Montgomery LLC,Map,Map,NY,Orange,NYIS,IPP Non-CHP,CTG,NA,12.0,11.6,12.0,Other Waste Biomass,OBG,CT,6,2024,"(U) Under construction, less than or equal to 50 percent complete",41.488500,-74.226200
56789,TBE Montgomery LLC,57472,TBE-Montgomery LLC,Map,Map,NY,Orange,NYIS,IPP Non-CHP,STG,NA,9.0,7.4,8.1,Other Waste Biomass,OBG,CA,6,2024,"(U) Under construction, less than or equal to 50 percent complete",41.488500,-74.226200
64994,SolRiver Capital LLC,59596,Rhubarb One SC,Map,Map,SC,Marion,CPLE,IPP Non-CHP,PV1,,9.6,9.6,9.6,Solar Photovoltaic,SUN,PV,6,2024,(L) Regulatory approvals pending. Not under construction,34.151111,-79.410000
59598,Tooele Army Depot,59817,Tooele Army Depot(CSG),Map,Map,UT,Tooele,PACE,IPP Non-CHP,PV2,,1.5,1.5,1.2,Solar Photovoltaic,SUN,PV,6,2024,"(U) Under construction, less than or equal to 50 percent complete",40.503030,-112.370600
59967,Phoenix Energy,60192,North Fork Community Power,Map,Map,CA,Madera,CISO,IPP Non-CHP,NFCP2,,1.8,1.2,1.2,Other Waste Biomass,OBG,IC,6,2024,"(V) Under construction, more than 50 percent complete",37.231531,-119.494300
50123,"Leeward Asset Management, LLC",60572,White Wing Solar,Map,Map,AZ,Yuma,CISO,IPP Non-CHP,GEN01,,175.0,175.0,175.0,Solar Photovoltaic,SUN,PV,6,2024,"(V) Under construction, more than 50 percent complete",32.994056,-113.508800
62646,"Painter Energy Storage, LLC",62729,Painter Energy Storage,Map,Map,CA,Santa Barbara,CISO,IPP Non-CHP,PAIN1,,10.0,10.0,10.0,Batteries,MWH,BA,6,2024,"(U) Under construction, less than or equal to 50 percent complete",34.410000,-119.515000
49893,Invenergy Services LLC,63028,Tip Top Solar Energy Center LLC,Map,Map,NM,Lea,SWPP,IPP Non-CHP,GEN1,,220.0,220.0,220.0,Solar Photovoltaic,SUN,PV,6,2024,"(P) Planned for installation, but regulatory approvals not initiated",32.133136,-103.323500
63109,"Hales Mills Solar, LLC",63339,"Hales Mills Solar, LLC",Map,Map,NY,Fulton,NYIS,IPP Non-CHP,09751,,3.0,3.0,3.0,Batteries,MWH,BA,6,2024,"(V) Under construction, more than 50 percent complete",43.018270,-74.329180
63755,"Old 300 Solar Center, LLC",64133,"Old 300 Solar Center, LLC",Map,Map,TX,Fort Bend,ERCO,IPP Non-CHP,2222,,430.0,430.0,430.0,Solar Photovoltaic,SUN,PV,6,2024,"(V) Under construction, more than 50 percent complete",29.333550,-95.825440
63778,"SR Litchfield, LLC",64161,SR Litchfield,Map,Map,CT,Litchfield,ISNE,IPP Non-CHP,LITCH,,19.8,19.8,19.8,Solar Photovoltaic,SUN,PV,6,2024,(T) Regulatory approvals received. Not under construction,41.793735,-73.167010
63968,"Mockingbird Solar Center, LLC",64347,Mockingbird Solar Center,Map,Map,TX,Lamar,ERCO,IPP Non-CHP,7777,,471.0,471.0,471.0,Solar Photovoltaic,SUN,PV,6,2024,"(V) Under construction, more than 50 percent complete",33.391670,-95.425190
66029,Novel Froehle Solar HQ LLC,64728,Novel Froehle Solar LLC,Map,Map,MN,Stearns,MISO,IPP Non-CHP,FROLE,,1.0,1.0,1.0,Solar Photovoltaic,SUN,PV,6,2024,"(U) Under construction, less than or equal to 50 percent complete",45.467562,-94.398160
66030,Novel Milbradt Solar HQ LLC,64729,Novel Milbradt Solar LLC,Map,Map,MN,Redwood,MISO,IPP Non-CHP,MLBRT,,1.0,1.0,1.0,Solar Photovoltaic,SUN,PV,6,2024,"(U) Under construction, less than or equal to 50 percent complete",44.651132,-95.339550
64348,ASD Three Rivers Road MA Solar LLC,64844,Three Rivers Solar LLC,Map,Map,MA,Hampden,ISNE,IPP Non-CHP,TRB,,1.4,1.4,1.4,Batteries,MWH,BA,6,2024,"(U) Under construction, less than or equal to 50 percent complete",42.168820,-72.394380
64348,ASD Three Rivers Road MA Solar LLC,64844,Three Rivers Solar LLC,Map,Map,MA,Hampden,ISNE,IPP Non-CHP,TRS,,4.0,4.0,4.0,Solar Photovoltaic,SUN,PV,6,2024,"(U) Under construction, less than or equal to 50 percent complete",42.168820,-72.394380
66031,Novel Brock Solar HQ LLC,65024,Novel Brock Solar LLC,Map,Map,MN,Yellow Medicine,MISO,IPP Non-CHP,BROCK,,1.0,1.0,1.0,Solar Photovoltaic,SUN,PV,6,2024,(T) Regulatory approvals received. Not under construction,44.791225,-95.766540
66032,Novel Swenson Solar HQ LLC,65025,Novel Swenson Solar LLC,Map,Map,MN,Chisago,MISO,IPP Non-CHP,SWNSN,,1.0,1.0,1.0,Solar Photovoltaic,SUN,PV,6,2024,(T) Regulatory approvals received. Not under construction,45.492022,-92.865830
62842,"Lightsource Renewable Energy Asset Management, LLC",65030,Oxbow Solar 1,Map,Map,LA,Pointe Coupee,MISO,IPP Non-CHP,LAVE1,,300.0,300.0,300.0,Solar Photovoltaic,SUN,PV,6,2024,"(TS) Construction complete, but not yet in commercial operation",30.667878,-91.391710
64458,"Enfield Solar One, LLC",65047,Enfield Solar One,Map,Map,CT,Hartford,ISNE,IPP Non-CHP,VCP07,,4.0,4.0,4.0,Solar Photovoltaic,SUN,PV,6,2024,"(V) Under construction, more than 50 percent complete",41.994902,-72.525270
58468,Dominion Renewable Energy,65318,Quillwort Solar,Map,Map,VA,Powhatan,PJM,Electric Utility,POWI,,18.0,18.0,18.0,Solar Photovoltaic,SUN,PV,6,2024,"(U) Under construction, less than or equal to 50 percent complete",37.567000,-77.927100
58468,Dominion Renewable Energy,65320,Sebera Solar,Map,Map,VA,Prince George,PJM,Electric Utility,SEBE,,20.0,20.0,20.0,Solar Photovoltaic,SUN,PV,6,2024,"(U) Under construction, less than or equal to 50 percent complete",37.250000,-77.250000
64738,"Hummingbird Energy Storage, LLC",65395,Hummingbird Energy Storage LLC,Map,Map,CA,Santa Clara,CISO,IPP Non-CHP,HUMB1,,75.0,75.0,75.0,Batteries,MWH,BA,6,2024,"(U) Under construction, less than or equal to 50 percent complete",37.239218,-121.779300
17609,Southern California Edison Co,65458,Anode (Springville) BESS,Map,Map,CA,Tulare,CISO,Electric Utility,ANOD1,,112.5,112.5,112.5,Batteries,MWH,BA,6,2024,"(V) Under construction, more than 50 percent complete",36.107903,-118.940900
17609,Southern California Edison Co,65458,Anode (Springville) BESS,Map,Map,CA,Tulare,CISO,Electric Utility,ANOD2,,112.5,112.5,112.5,Batteries,MWH,BA,6,2024,"(V) Under construction, more than 50 percent complete",36.107903,-118.940900
56201,Engie North America,65488,Crockett,Map,Map,TX,Houston,ERCO,IPP Non-CHP,CROKT,,9.9,9.9,9.9,Batteries,MWH,BA,6,2024,"(U) Under construction, less than or equal to 50 percent complete",31.377355,-95.479080
56201,Engie North America,65590,Octans,Map,Map,TX,Pecos,ERCO,IPP Non-CHP,OCTNS,,125.0,125.0,125.0,Batteries,MWH,BA,6,2024,"(U) Under construction, less than or equal to 50 percent complete",31.000575,-102.679900
50123,"Leeward Asset Management, LLC",65591,AVEP BESS,Map,Map,CA,Kern,CISO,IPP Non-CHP,AVEPB,,126.0,126.0,126.0,Batteries,MWH,BA,6,2024,"(U) Under construction, less than or equal to 50 percent complete",34.514528,-118.203600
64936,"San Jacinto Grid, LLC",65657,"San Jacinto Grid, LLC",Map,Map,CA,Riverside,CISO,IPP Non-CHP,HESJG,,65.0,65.0,65.0,Batteries,MWH,BA,6,2024,"(U) Under construction, less than or equal to 50 percent complete",33.922950,-116.873500
64966,"Vikings Energy Farm, LLC",65711,Vikings Energy Farm,Map,Map,CA,Imperial,IID,IPP Non-CHP,GEN1,,136.8,136.8,136.8,Solar Photovoltaic,SUN,PV,6,2024,"(U) Under construction, less than or equal to 50 percent complete",32.803363,-115.271700
65016,"High River Energy Center, LLC",65765,"High River Energy Center, LLC",Map,Map,NY,Montgomery,NYIS,IPP Non-CHP,HR01,,90.0,90.0,90.0,Solar Photovoltaic,SUN,PV,6,2024,(L) Regulatory approvals pending. Not under construction,42.901856,-74.132730
56769,Consolidated Edison Development Inc.,65892,Timberland Solar,Map,Map,GA,Oglethorpe,SEPA,IPP Non-CHP,TSPV,,140.0,140.0,140.0,Solar Photovoltaic,SUN,PV,6,2024,"(V) Under construction, more than 50 percent complete",33.964323,-82.815840
65097,"Gans Solar, LLC",65902,Gans Solar,Map,Map,PA,Fayette,PJM,IPP Non-CHP,5,,14.0,14.0,14.0,Solar Photovoltaic,SUN,PV,6,2024,"(P) Planned for installation, but regulatory approvals not initiated",39.750126,-79.835800
65098,"Pechin Solar, LLC",65903,Pechin Solar,Map,Map,PA,Fayette,PJM,IPP Non-CHP,9,,14.0,14.0,14.0,Solar Photovoltaic,SUN,PV,6,2024,"(P) Planned for installation, but regulatory approvals not initiated",39.961060,-79.643940
65100,"Listonburg Solar, LLC",65929,Listonburg Solar,Map,Map,PA,Somerset,PJM,IPP Non-CHP,8,,15.0,15.0,15.0,Solar Photovoltaic,SUN,PV,6,2024,"(P) Planned for installation, but regulatory approvals not initiated",39.764720,-79.303390
65131,"Mammoth North, LLC",65957,Mammoth North Solar,Map,Map,IN,Starke,PJM,IPP Non-CHP,GEN1,,400.0,400.0,246.5,Solar Photovoltaic,SUN,PV,6,2024,"(V) Under construction, more than 50 percent complete",41.199330,-86.633790
65218,"Glover Creek Solar, LLC",66047,"Glover Creek Solar, LLC",Map,Map,KY,Metcalfe,PJM,IPP Non-CHP,GLOVE,,55.0,55.0,55.0,Solar Photovoltaic,SUN,PV,6,2024,"(V) Under construction, more than 50 percent complete",36.901441,-85.712030
60970,SunShare Management,66070,Buffalo Sun CSG,Map,Map,MN,McLeod,MISO,IPP Non-CHP,BUFFS,,1.0,1.0,1.0,Solar Photovoltaic,SUN,PV,6,2024,"(P) Planned for installation, but regulatory approvals not initiated",44.799686,-94.019970
65270,"Blue Elk I Solar, LLC",66107,"Blue Elk I Solar, LLC",Map,Map,MI,Lenawee,MISO,IPP Non-CHP,BEI,,20.0,20.0,20.0,Solar Photovoltaic,SUN,PV,6,2024,"(U) Under construction, less than or equal to 50 percent complete",41.919000,-83.996000
65280,"Babbitt Ranch Energy Center, LLC",66110,Babbitt Ranch Energy Center,Map,Map,AZ,Coconino,AZPS,IPP Non-CHP,BREC1,,163.0,163.0,163.0,Onshore Wind Turbine,WND,WT,6,2024,"(U) Under construction, less than or equal to 50 percent complete",35.627731,-111.867900
65293,"Bartonsville Energy Facility, LLC",66133,"Bartonsville Energy Facility, LLC",Map,Map,VA,Frederick,PJM,IPP Non-CHP,BTS,,130.0,130.0,130.0,Solar Photovoltaic,SUN,PV,6,2024,"(V) Under construction, more than 50 percent complete",39.088731,-78.239900
65368,"Eleven Mile Solar Center, LLC",66263,Eleven Mile Solar Center,Map,Map,AZ,Pinal,SRP,IPP Non-CHP,1111,,300.0,300.0,300.0,Solar Photovoltaic,SUN,PV,6,2024,"(V) Under construction, more than 50 percent complete",32.860970,-111.591900
65368,"Eleven Mile Solar Center, LLC",66263,Eleven Mile Solar Center,Map,Map,AZ,Pinal,SRP,IPP Non-CHP,2222,,300.0,300.0,300.0,Batteries,MWH,BA,6,2024,"(V) Under construction, more than 50 percent complete",32.860970,-111.591900
65392,Riverstart Solar Park III LLC,66269,Riverstart Solar Park III,Map,Map,IN,Randolph,PJM,IPP Non-CHP,RSS03,,100.0,100.0,100.0,Solar Photovoltaic,SUN,PV,6,2024,"(V) Under construction, more than 50 percent complete",40.055556,-85.126630
5248,Dominion Energy Inc.,66314,Bookers Mill Solar,Map,Map,VA,Richmond,PJM,Electric Utility,BMSO,,127.0,127.0,127.0,Solar Photovoltaic,SUN,PV,6,2024,"(U) Under construction, less than or equal to 50 percent complete",37.860000,-76.560000
5248,Dominion Energy Inc.,66316,Madison Solar,Map,Map,VA,Orange,PJM,IPP Non-CHP,MDSO,,62.5,62.5,62.5,Solar Photovoltaic,SUN,PV,6,2024,(T) Regulatory approvals received. Not under construction,38.287750,-77.840050
65419,"Superstition Energy Storage, LLC",66333,Superstition Energy Storage,Map,Map,AZ,Maricopa,SRP,IPP Non-CHP,BESS4,,90.0,90.0,90.0,Batteries,MWH,BA,6,2024,"(V) Under construction, more than 50 percent complete",33.358980,-111.831100
65418,"Sierra Estrella Energy Storage, LLC",66334,Sierra Estrella Energy Storage,Map,Map,AZ,Maricopa,SRP,IPP Non-CHP,BESS3,,250.0,250.0,250.0,Batteries,MWH,BA,6,2024,"(V) Under construction, more than 50 percent complete",33.410802,-112.313800
65428,Callisto I Energy Center,66338,Callisto I Energy Center,Map,Map,TX,Harris,ERCO,IPP Non-CHP,CALL1,,101.6,100.0,100.0,Batteries,MWH,BA,6,2024,"(U) Under construction, less than or equal to 50 percent complete",29.646811,-95.450540
64994,SolRiver Capital LLC,66349,Green Solar LLC (CSG),Map,Map,OR,Jefferson,BPAT,IPP Non-CHP,PV1,,2.9,2.9,2.9,Solar Photovoltaic,SUN,PV,6,2024,"(TS) Construction complete, but not yet in commercial operation",44.487289,-121.249700
65411,Duke Energy Renewables Services,66369,"Wildflower Solar, LLC (MS)",Map,Map,MS,DeSoto,MISO,IPP Non-CHP,WDFL,,100.0,100.0,100.0,Solar Photovoltaic,SUN,PV,6,2024,"(V) Under construction, more than 50 percent complete",34.962000,-90.184000
65552,Terra-Gen Operating Co-BESS 2,66461,Beaumont BESS,Map,Map,CA,Riverside,CISO,IPP Non-CHP,GEN1,,116.6,100.0,100.0,Batteries,MWH,BA,6,2024,"(V) Under construction, more than 50 percent complete",33.924440,-116.987600
65550,"Nova Power, LLC",66494,Menifee Power Bank,Map,Map,CA,Riverside,CISO,IPP Non-CHP,NOVA1,,230.0,230.0,230.0,Batteries,MWH,BA,6,2024,"(V) Under construction, more than 50 percent complete",33.739005,-117.169800
65550,"Nova Power, LLC",66494,Menifee Power Bank,Map,Map,CA,Riverside,CISO,IPP Non-CHP,NOVA2,,230.0,230.0,230.0,Batteries,MWH,BA,6,2024,"(V) Under construction, more than 50 percent complete",33.739005,-117.169800
65555,West Tambo Clean Power II,66506,West Tambo Clean Power II,Map,Map,CA,Merced,CISO,IPP Non-CHP,WEST2,,2.0,2.0,2.0,Solar Photovoltaic,SUN,PV,6,2024,"(U) Under construction, less than or equal to 50 percent complete",37.360955,-120.719400
60025,Greenbacker Renewable Energy Corporation,66603,IGS OXR1,Map,Map,CA,Ventura,CISO,IPP Non-CHP,454,,4.8,4.8,4.8,Solar Photovoltaic,SUN,PV,6,2024,"(V) Under construction, more than 50 percent complete",34.212521,-119.129700
65641,"EnLink Processing Services, LLC",66615,Eunice LA Plant,Map,Map,LA,Acadia,MISO,Industrial Non-CHP,STG01,,4.7,4.6,4.6,Natural Gas Steam Turbine,NG,ST,6,2024,"(U) Under construction, less than or equal to 50 percent complete",30.461000,-92.532000
65648,"Prairie Mist Solar Project, LLC",66625,Prairie Mist Solar,Map,Map,AR,Ashley,MISO,IPP Non-CHP,78661,,109.2,100.0,100.0,Solar Photovoltaic,SUN,PV,6,2024,(T) Regulatory approvals received. Not under construction,33.255423,-91.668950
65654,Birch Creek Development,66628,"Altona Solar, LLC",Map,Map,MO,Audrain,MISO,IPP Non-CHP,PV,,30.0,30.0,30.0,Solar Photovoltaic,SUN,PV,6,2024,"(U) Under construction, less than or equal to 50 percent complete",39.283450,-92.142030
65677,Dimension Energy LLC,66676,Kings CSG 3 LLC,Map,Map,CA,Kings,CISO,IPP Non-CHP,KING3,,3.0,3.0,3.0,Solar Photovoltaic,SUN,PV,6,2024,"(V) Under construction, more than 50 percent complete",36.249180,-119.885200
65696,"Brazos Bend BESS, LLC",66690,"Brazos Bend BESS, LLC",Map,Map,TX,Fort Bend,ERCO,IPP Non-CHP,BEND,,100.0,100.0,100.0,Batteries,MWH,BA,6,2024,"(U) Under construction, less than or equal to 50 percent complete",29.563180,-95.800230
65765,Borden County Battery Energy Storage System LLC,66804,Borden County BESS,Map,Map,TX,Borden,ERCO,IPP Non-CHP,1,,150.0,150.0,150.0,Batteries,MWH,BA,6,2024,"(V) Under construction, more than 50 percent complete",32.722330,-101.638500
65780,"Clearwater Wind III, LLC",66811,Clearwater Wind III,Map,Map,MT,Rosebud,AVA,IPP Non-CHP,CW3,,100.0,100.0,100.0,Onshore Wind Turbine,WND,WT,6,2024,"(V) Under construction, more than 50 percent complete",46.818828,-106.194600
65805,"GulfStar Power, LLC",66871,"GulfStar Power, LLC",Map,Map,TX,Wharton,ERCO,IPP Non-CHP,BESS,,300.0,300.0,300.0,Batteries,MWH,BA,6,2024,"(V) Under construction, more than 50 percent complete",29.191296,-95.967520
65805,"GulfStar Power, LLC",66871,"GulfStar Power, LLC",Map,Map,TX,Wharton,ERCO,IPP Non-CHP,SOLAR,,451.6,451.6,451.6,Solar Photovoltaic,SUN,PV,6,2024,"(V) Under construction, more than 50 percent complete",29.191296,-95.967520
64904,AES Clean Energy,66885,Baldy Mesa 2_Silver Peak Hybrid,Map,Map,CA,San Bernardino,CISO,IPP Non-CHP,SPKBS,,25.0,25.0,25.0,Batteries,MWH,BA,6,2024,"(V) Under construction, more than 50 percent complete",34.609137,-117.453700
64904,AES Clean Energy,66885,Baldy Mesa 2_Silver Peak Hybrid,Map,Map,CA,San Bernardino,CISO,IPP Non-CHP,SPKPV,,50.0,50.0,50.0,Solar Photovoltaic,SUN,PV,6,2024,"(V) Under construction, more than 50 percent complete",34.609137,-117.453700
65826,"Roadrunner Crossing Wind Farm, LLC",66902,Roadrunner Wind Farm,Map,Map,TX,Eastland,ERCO,IPP Non-CHP,5317,,256.0,256.0,256.0,Onshore Wind Turbine,WND,WT,6,2024,"(V) Under construction, more than 50 percent complete",32.437418,-99.108910
61950,Terra-Gen Operating Co-Solar,66946,"Lockhart ESS, LLC",Map,Map,CA,San Bernardino,CISO,IPP Non-CHP,LHESS,,45.0,45.0,45.0,Batteries,MWH,BA,6,2024,"(V) Under construction, more than 50 percent complete",35.032461,-117.356700
61944,MN8 Energy LLC,67015,Dynamic - Exeter Solar,Map,Map,ME,Penobscot,ISNE,IPP Non-CHP,GEN1,,4.0,4.0,4.0,Solar Photovoltaic,SUN,PV,6,2024,"(U) Under construction, less than or equal to 50 percent complete",44.975721,-69.090400
61944,MN8 Energy LLC,67016,Dynamic - Enfield Hammett Road,Map,Map,ME,Penobscot,ISNE,IPP Non-CHP,GEN1,,4.9,4.9,4.9,Solar Photovoltaic,SUN,PV,6,2024,"(V) Under construction, more than 50 percent complete",45.243615,-68.620600
65956,ME Sandy River LLC,67032,15 Glen Harris RD,Map,Map,ME,Franklin,ISNE,IPP Non-CHP,20261,,3.6,3.6,3.6,Solar Photovoltaic,SUN,PV,6,2024,"(V) Under construction, more than 50 percent complete",44.665000,-69.986000
64994,SolRiver Capital LLC,67051,Sunflower Solar LLC,Map,Map,SC,Williamsburg,DUK,IPP Non-CHP,PV1,,10.0,10.0,10.0,Solar Photovoltaic,SUN,PV,6,2024,"(TS) Construction complete, but not yet in commercial operation",33.730956,-79.827860
65964,"Montgomery Ranch Wind Farm, LLC",67095,"Montgomery Ranch Wind Farm, LLC",Map,Map,TX,Foard,ERCO,IPP Non-CHP,MR1,,202.5,202.5,202.5,Onshore Wind Turbine,WND,WT,6,2024,"(U) Under construction, less than or equal to 50 percent complete",33.841272,-99.657810
60025,Greenbacker Renewable Energy Corporation,67154,Mars Hill,Map,Map,ME,Aroostook,ISNE,IPP Non-CHP,577,,2.6,2.6,2.6,Solar Photovoltaic,SUN,PV,6,2024,"(U) Under construction, less than or equal to 50 percent complete",46.516899,-67.883300
60025,Greenbacker Renewable Energy Corporation,67156,Pine Hill Westport,Map,Map,MA,Bristol,ISNE,IPP Non-CHP,702,,3.3,3.3,3.3,Solar Photovoltaic,SUN,PV,6,2024,"(U) Under construction, less than or equal to 50 percent complete",41.605142,-71.044090
62759,National Grid Renewables,67166,Fayette Solar,Map,Map,OH,Ross,PJM,IPP Non-CHP,FYTSL,,45.0,45.0,45.0,Solar Photovoltaic,SUN,PV,6,2024,"(V) Under construction, more than 50 percent complete",39.383000,-83.400000
66071,Franklin Solar Idaho,67190,Franklin Solar Hybrid,Map,Map,ID,Twin Falls,IPCO,IPP Non-CHP,FBESS,,100.0,100.0,100.0,Batteries,MWH,BA,6,2024,"(U) Under construction, less than or equal to 50 percent complete",42.204200,-114.609900
66071,Franklin Solar Idaho,67190,Franklin Solar Hybrid,Map,Map,ID,Twin Falls,IPCO,IPP Non-CHP,FRKLN,,100.0,100.0,100.0,Solar Photovoltaic,SUN,PV,6,2024,"(U) Under construction, less than or equal to 50 percent complete",42.204200,-114.609900
66080,"Prairie Solar, LLC (VA)",67219,"Prairie Solar, LLC (VA)",Map,Map,VA,Isle of Wight,PJM,IPP Non-CHP,ENX21,,20.0,20.0,20.0,Solar Photovoltaic,SUN,PV,6,2024,(T) Regulatory approvals received. Not under construction,36.880181,-76.609310
60059,ZGlobal Inc,67234,Lara 2 Hybrid,Map,Map,CA,Merced,CISO,IPP Non-CHP,LARAB,,0.9,0.9,0.9,Batteries,MWH,BA,6,2024,(L) Regulatory approvals pending. Not under construction,36.989444,-120.878100
60059,ZGlobal Inc,67234,Lara 2 Hybrid,Map,Map,CA,Merced,CISO,IPP Non-CHP,LARAS,,0.7,0.7,0.7,Solar Photovoltaic,SUN,PV,6,2024,(L) Regulatory approvals pending. Not under construction,36.989444,-120.878100
66111,"Ebony Energy Storage, LLC",67237,Ebony Energy Storage,Map,Map,TX,Comal,ERCO,IPP Non-CHP,EBON1,,200.0,200.0,200.0,Batteries,MWH,BA,6,2024,"(V) Under construction, more than 50 percent complete",29.620088,-98.334480
4065,City of Columbus - (OH),67264,Jackson Pike WWTP Cogen Engines,Map,Map,OH,Franklin,PJM,Electric Utility,1,,1.4,1.4,1.4,Other Waste Biomass,OBG,IC,6,2024,"(V) Under construction, more than 50 percent complete",39.911247,-83.016510
4065,City of Columbus - (OH),67264,Jackson Pike WWTP Cogen Engines,Map,Map,OH,Franklin,PJM,Electric Utility,2,,1.4,1.4,1.4,Other Waste Biomass,OBG,IC,6,2024,"(V) Under construction, more than 50 percent complete",39.911247,-83.016510
66143,"Alcosta Boulevard BR 15-DD Solar Project 2020, LLC",67277,Bishop Ranch - BR 15-DD,Map,Map,CA,Contra Costa,CISO,IPP Non-CHP,4657B,,0.5,0.5,0.5,Batteries,MWH,BA,6,2024,"(V) Under construction, more than 50 percent complete",37.772900,-121.959500
66143,"Alcosta Boulevard BR 15-DD Solar Project 2020, LLC",67277,Bishop Ranch - BR 15-DD,Map,Map,CA,Contra Costa,CISO,IPP Non-CHP,4657C,,0.4,0.4,0.4,Solar Photovoltaic,SUN,PV,6,2024,"(V) Under construction, more than 50 percent complete",37.772900,-121.959500
66143,"Alcosta Boulevard BR 15-DD Solar Project 2020, LLC",67277,Bishop Ranch - BR 15-DD,Map,Map,CA,Contra Costa,CISO,IPP Non-CHP,4657R,,0.2,0.2,0.2,Solar Photovoltaic,SUN,PV,6,2024,"(V) Under construction, more than 50 percent complete",37.772900,-121.959500
66145,"Highland Ave Solar 1, LLC",67279,Borrego - Highland Ave,Map,Map,MA,Bristol,ISNE,IPP Non-CHP,6572,,5.0,5.0,5.0,Solar Photovoltaic,SUN,PV,6,2024,"(U) Under construction, less than or equal to 50 percent complete",41.661525,-71.059980
66145,"Highland Ave Solar 1, LLC",67279,Borrego - Highland Ave,Map,Map,MA,Bristol,ISNE,IPP Non-CHP,6572B,,5.0,5.0,5.0,Batteries,MWH,BA,6,2024,"(U) Under construction, less than or equal to 50 percent complete",41.661525,-71.059980
