Entity ID,Entity Name,Plant ID,Plant Name,Google Map,Bing Map,Plant State,County,Balancing Authority Code,Sector,Generator ID,Unit Code,Nameplate Capacity (MW),Net Summer Capacity (MW),Net Winter Capacity (MW),Technology,Energy Source Code,Prime Mover Code,Planned Operation Month,Planned Operation Year,Status,Latitude,Longitude
66431,Liberty 1 Solar LLC,67867,Liberty Hybrid Solar and Storage Project,Map,Map,TX,Harris,ERCO,IPP Non-CHP,LIB2,,65,65,65,Batteries,MWH,BA,1,2026,"(TS) Construction complete, but not yet in commercial operation",30.009659,-95.04083
66543,"Old Hayneville Solar, LLC",68001,"Old Hayneville Solar, LLC",Map,Map,AL,Montgomery,SOCO,IPP Non-CHP,OLHAY,,80,80,80,Solar Photovoltaic,SUN,PV,1,2026,"(V) Under construction, more than 50 percent complete",32.317562,-86.41123
67494,On Energy Storage,69453,Alamo Clean Energy Center (BESS),Map,Map,TX,Pecos,ERCO,IPP Non-CHP,ALBA1,,10.1,10.1,10.1,Batteries,MWH,BA,1,2026,"(TS) Construction complete, but not yet in commercial operation",30.902391,-102.8728
67494,On Energy Storage,69455,Fort Stockton Clean Energy Center (BESS),Map,Map,TX,Pecos,ERCO,IPP Non-CHP,FSBA1,,10.1,10.1,10.1,Batteries,MWH,BA,1,2026,"(TS) Construction complete, but not yet in commercial operation",30.891456,-102.8828
67494,On Energy Storage,69457,Mesquite Clean Energy Center (BESS),Map,Map,TX,Cameron,ERCO,IPP Non-CHP,MEBA1,,10.1,10.1,10.1,Batteries,MWH,BA,1,2026,"(TS) Construction complete, but not yet in commercial operation",26.098447,-97.82261
67494,On Energy Storage,69458,North Pecos Clean Energy Center (BESS),Map,Map,TX,Reeves,ERCO,IPP Non-CHP,NPBA1,,10.1,10,10.1,Batteries,MWH,BA,1,2026,"(TS) Construction complete, but not yet in commercial operation",31.422461,-103.5091
65539,Pivot Energy,69483,Pivot Solar 40,Map,Map,CO,Weld,PSCO,IPP Non-CHP,PS40,,2.8,2.8,2.8,Solar Photovoltaic,SUN,PV,1,2026,"(V) Under construction, more than 50 percent complete",40.318083,-104.9277
65869,Prologis Logistics Services Incorporated,69619,Prologis Edison 0503 - SLCNJ005,Map,Map,NJ,Middlesex,PJM,IPP Non-CHP,CN005,,1.4,1,1,Solar Photovoltaic,SUN,PV,1,2026,"(TS) Construction complete, but not yet in commercial operation",40.52988,-74.39846
807,Arkansas Electric Coop Corp,201,Thomas Fitzhugh,Map,Map,AR,Franklin,SWPP,Electric Utility,3,,71.2,46.5,46.5,Natural Gas Fired Combustion Turbine,NG,GT,2,2026,"(V) Under construction, more than 50 percent complete",35.462382,-93.80493
13781,Northern States Power Co - Minnesota,4014,Wheaton,Map,Map,WI,Chippewa,MISO,Electric Utility,WHT08,,249.1,223.1,230.8,Natural Gas Fired Combustion Turbine,NG,GT,2,2026,"(U) Under construction, less than or equal to 50 percent complete",44.885416,-91.51583
13491,New York University,54808,New York University Central Plant,Map,Map,NY,New York,NYIS,Commercial CHP,GR1,,2.6,2.6,2.6,Natural Gas Internal Combustion Engine,NG,IC,2,2026,"(V) Under construction, more than 50 percent complete",40.7899,-73.9233
67192,RWE Clean Energy,57679,Arlington Valley Solar Energy I,Map,Map,AZ,Maricopa,AZPS,IPP Non-CHP,AVSE1,,127,125,125,Solar Photovoltaic,SUN,PV,2,2026,"(V) Under construction, more than 50 percent complete",33.321667,-112.8806
16572,Salt River Project,58413,Copper Crossing Energy and Research Cent,Map,Map,AZ,Pinal,SRP,Electric Utility,CXS01,,17.6,16.5,17.6,Solar Photovoltaic,SUN,PV,2,2026,"(U) Under construction, less than or equal to 50 percent complete",33.15512,-111.4836
16572,Salt River Project,58413,Copper Crossing Energy and Research Cent,Map,Map,AZ,Pinal,SRP,Electric Utility,CXS03,,19.2,18,19.2,Solar Photovoltaic,SUN,PV,2,2026,"(U) Under construction, less than or equal to 50 percent complete",33.15512,-111.4836
62646,"Painter Energy Storage, LLC",62729,Painter Energy Storage,Map,Map,CA,Santa Barbara,CISO,IPP Non-CHP,PAIN1,,10,10,10,Batteries,MWH,BA,2,2026,"(TS) Construction complete, but not yet in commercial operation",34.41,-119.515
66777,"McCrae Wind Energy II, LLC",63342,McCrae Wind Energy II,Map,Map,TX,Glasscock,ERCO,IPP Non-CHP,BKII,,162.1,162.1,162.1,Onshore Wind Turbine,WND,WT,2,2026,"(TS) Construction complete, but not yet in commercial operation",31.754037,-101.6752
61222,174 Power Global Corp.,63798,Atlas,Map,Map,AZ,La Paz,AZPS,IPP Non-CHP,ATL01,,300,300,300,Solar Photovoltaic,SUN,PV,2,2026,"(V) Under construction, more than 50 percent complete",33.94345,-113.7917
61222,174 Power Global Corp.,63798,Atlas,Map,Map,AZ,La Paz,AZPS,IPP Non-CHP,ATLB1,,300,300,300,Batteries,MWH,BA,2,2026,"(V) Under construction, more than 50 percent complete",33.94345,-113.7917
63527,"Westlands Cherry, LLC",63850,Cherry,Map,Map,CA,Kings,CISO,IPP Non-CHP,BESS1,,40,40,40,Batteries,MWH,BA,2,2026,"(U) Under construction, less than or equal to 50 percent complete",36.122457,-119.9232
64370,"IP Radian, LLC",64859,"IP Radian, LLC",Map,Map,TX,Brown,ERCO,IPP Non-CHP,RADBA,,160,160,160,Batteries,MWH,BA,2,2026,"(TS) Construction complete, but not yet in commercial operation",31.5481,-99.1872
64738,"Hummingbird Energy Storage, LLC",65395,Hummingbird Energy Storage LLC,Map,Map,CA,Santa Clara,CISO,IPP Non-CHP,HUMB1,,75,75,75,Batteries,MWH,BA,2,2026,"(TS) Construction complete, but not yet in commercial operation",37.239218,-121.7793
67192,RWE Clean Energy,65513,Baron Winds II,Map,Map,NY,Steuben,NYIS,IPP Non-CHP,BRNW2,,113.2,113.2,113.2,Onshore Wind Turbine,WND,WT,2,2026,"(V) Under construction, more than 50 percent complete",42.43988,-77.52982
56201,Engie North America,65880,Zeya,Map,Map,TX,Galveston,ERCO,IPP Non-CHP,ZEYA,,250,250,250,Batteries,MWH,BA,2,2026,"(U) Under construction, less than or equal to 50 percent complete",29.388758,-94.94793
65439,"Lotus Infrastructure Global Operations, LLC",66359,"Grover Hill Wind, LLC",Map,Map,OH,Paulding,PJM,IPP Non-CHP,GHW,,140.3,140.3,140.3,Onshore Wind Turbine,WND,WT,2,2026,"(V) Under construction, more than 50 percent complete",41.04422,-84.50981
67466,"Nexus Renewable Power, LLC",66390,MRG Goody Solar Project Hybrid,Map,Map,TX,Lamar,ERCO,IPP Non-CHP,GDYES,,50.4,50.4,50.4,Batteries,MWH,BA,2,2026,"(V) Under construction, more than 50 percent complete",33.639193,-95.62905
67466,"Nexus Renewable Power, LLC",66390,MRG Goody Solar Project Hybrid,Map,Map,TX,Lamar,ERCO,IPP Non-CHP,GDYPV,,170.8,170.8,170.8,Solar Photovoltaic,SUN,PV,2,2026,"(V) Under construction, more than 50 percent complete",33.639193,-95.62905
66064,"Bexar ESS, LLC",66400,Bexar ESS,Map,Map,TX,Bexar,ERCO,IPP Non-CHP,OCBEX,,100,100,100,Batteries,MWH,BA,2,2026,"(TS) Construction complete, but not yet in commercial operation",29.271,-98.456
65672,"Elkhart County Solar Project, LLC",66647,Elkhart County Solar Project,Map,Map,IN,Elkhart,PJM,IPP Non-CHP,USELT,,100,100,100,Solar Photovoltaic,SUN,PV,2,2026,"(TS) Construction complete, but not yet in commercial operation",41.498,-85.69
65695,Seven Flags BESS LLC,66689,Seven Flags BESS LLC,Map,Map,TX,Webb,ERCO,IPP Non-CHP,7FLAG,,100,100,100,Batteries,MWH,BA,2,2026,"(U) Under construction, less than or equal to 50 percent complete",27.456115,-99.41734
65761,"Lighthouse Arthur Kill, LLC",66785,Elevate Arthur Kill,Map,Map,NY,Richmond,NYIS,IPP Non-CHP,ELVAK,,15.1,15.1,15.1,Batteries,MWH,BA,2,2026,"(V) Under construction, more than 50 percent complete",40.590066,-74.19836
65789,"Marion County Solar Project, LLC",66860,Marion County Solar Project,Map,Map,OH,Marion,PJM,IPP Non-CHP,USMNC,,100,100,100,Solar Photovoltaic,SUN,PV,2,2026,"(TS) Construction complete, but not yet in commercial operation",40.624518,-83.13615
65815,Sunraycer Assets I LLC,66897,"Midpoint Solar, LLC",Map,Map,TX,Hill,ERCO,IPP Non-CHP,MIDBA,,50,50,50,Batteries,MWH,BA,2,2026,"(U) Under construction, less than or equal to 50 percent complete",32.116002,-97.34352
65815,Sunraycer Assets I LLC,66897,"Midpoint Solar, LLC",Map,Map,TX,Hill,ERCO,IPP Non-CHP,MIDPV,,97.5,97.5,97.5,Solar Photovoltaic,SUN,PV,2,2026,"(TS) Construction complete, but not yet in commercial operation",32.116002,-97.34352
65829,"Hill Solar 1, LLC",66912,Hill Solar 1,Map,Map,TX,Hill,ERCO,IPP Non-CHP,HS1,,405,405,405,Solar Photovoltaic,SUN,PV,2,2026,"(TS) Construction complete, but not yet in commercial operation",32.139,-97.06
4065,City of Columbus - (OH),67264,Jackson Pike WWTP Cogen Engines,Map,Map,OH,Franklin,PJM,Electric Utility,1,,1.4,1.4,1.4,Other Waste Biomass,OBG,IC,2,2026,"(TS) Construction complete, but not yet in commercial operation",39.911247,-83.01651
4065,City of Columbus - (OH),67264,Jackson Pike WWTP Cogen Engines,Map,Map,OH,Franklin,PJM,Electric Utility,2,,1.4,1.4,1.4,Other Waste Biomass,OBG,IC,2,2026,"(TS) Construction complete, but not yet in commercial operation",39.911247,-83.01651
66127,Howard University,67265,CHP Plant,Map,Map,DC,District of Columbia,PJM,IPP CHP,CTG-1,CTG1,5.7,5.3,5.3,Natural Gas Fired Combustion Turbine,NG,GT,2,2026,"(V) Under construction, more than 50 percent complete",38.92033,-77.021
66149,"Magic Mountain Parkway Solar Project 2023, LLC",67283,Six Flags Magic Mountain,Map,Map,CA,Los Angeles,CISO,IPP Non-CHP,6569,,10,10,10,Solar Photovoltaic,SUN,PV,2,2026,"(V) Under construction, more than 50 percent complete",34.428209,-118.5993
66149,"Magic Mountain Parkway Solar Project 2023, LLC",67283,Six Flags Magic Mountain,Map,Map,CA,Los Angeles,CISO,IPP Non-CHP,6569B,,2,2,2,Batteries,MWH,BA,2,2026,"(V) Under construction, more than 50 percent complete",34.428209,-118.5993
9417,Interstate Power and Light Co,67538,Wever Solar (150MW),Map,Map,IA,Lee,MISO,Electric Utility,BESS1,,99,99,99,Batteries,MWH,BA,2,2026,"(TS) Construction complete, but not yet in commercial operation",40.734563,-91.27675
66363,Bypass BESS LLC,67761,Bypass BESS,Map,Map,TX,Fort Bend,ERCO,IPP Non-CHP,1,,200,200,200,Batteries,MWH,BA,2,2026,"(TS) Construction complete, but not yet in commercial operation",29.484448,-95.62164
66387,"Babacomari Solar, LLC",67797,Babacomari Solar,Map,Map,AZ,Cochise,TEPC,IPP Non-CHP,BS,,160,160,160,Solar Photovoltaic,SUN,PV,2,2026,"(TS) Construction complete, but not yet in commercial operation",31.656605,-110.4134
66413,Ray Ranch Solar LLC,67837,Ray Ranch Solar,Map,Map,TX,Goliad,ERCO,IPP Non-CHP,RAYRS,,255.2,255.2,255.2,Solar Photovoltaic,SUN,PV,2,2026,"(TS) Construction complete, but not yet in commercial operation",28.628,-97.724
803,Arizona Public Service Co,67964,Agave,Map,Map,AZ,Maricopa,AZPS,Electric Utility,A400M,,150,150,150,Batteries,MWH,BA,2,2026,"(TS) Construction complete, but not yet in commercial operation",33.32389,-112.8397
66517,"Two Hearted Solar, LLC",67969,Two Hearted Solar,Map,Map,NC,Yadkin,DUK,IPP Non-CHP,PGR28,,22,22,22,Solar Photovoltaic,SUN,PV,2,2026,"(TS) Construction complete, but not yet in commercial operation",36.235367,-80.56279
66542,"Piney Woods Solar, LLC",67995,Piney Woods Solar,Map,Map,TX,Walker,MISO,IPP Non-CHP,PWS,,150,150,150,Solar Photovoltaic,SUN,PV,2,2026,"(U) Under construction, less than or equal to 50 percent complete",30.718683,-95.66965
66561,Selkirk Solar LLC,68037,NY Selkirk S Albany RD - Hemlock Hills S,Map,Map,NY,Albany,NYIS,IPP Non-CHP,18211,,5,5,5,Solar Photovoltaic,SUN,PV,2,2026,"(V) Under construction, more than 50 percent complete",42.548056,-73.83611
66572,"Montpelier Solar, LLC",68062,Montpelier Solar Project,Map,Map,OH,Williams,PJM,IPP Non-CHP,MPLR,,49,49,49,Solar Photovoltaic,SUN,PV,2,2026,"(TS) Construction complete, but not yet in commercial operation",41.59,-84.56
66576,Chillingham Solar LLC,68065,Chillingham Solar,Map,Map,TX,Bell,ERCO,IPP Non-CHP,CHILS,,350,350,350,Solar Photovoltaic,SUN,PV,2,2026,"(TS) Construction complete, but not yet in commercial operation",31.006,-97.262
66589,"SR Dumas, LLC",68100,SR Dumas,Map,Map,AR,Desha,MISO,IPP Non-CHP,DUMAS,,4.8,4.8,4.8,Solar Photovoltaic,SUN,PV,2,2026,"(V) Under construction, more than 50 percent complete",33.891711,-91.47006
65869,Prologis Logistics Services Incorporated,68118,Addison 11-SLCHI404,Map,Map,IL,DuPage,PJM,IPP Non-CHP,CH404,,1.6,1.6,1.6,Solar Photovoltaic,SUN,PV,2,2026,"(TS) Construction complete, but not yet in commercial operation",41.930327,-88.04848
65869,Prologis Logistics Services Incorporated,68130,Des Plaines 11-SLCHI211,Map,Map,IL,Cook,PJM,IPP Non-CHP,CH211,,1.6,1.6,1.6,Solar Photovoltaic,SUN,PV,2,2026,"(TS) Construction complete, but not yet in commercial operation",42.015,-87.915
65869,Prologis Logistics Services Incorporated,68237,South Bay Dis Ctr 20-SLLAX512,Map,Map,CA,Los Angeles,CISO,IPP Non-CHP,LA512,,1.3,1.3,1.3,Solar Photovoltaic,SUN,PV,2,2026,"(TS) Construction complete, but not yet in commercial operation",33.84038,-118.2287
65869,Prologis Logistics Services Incorporated,68238,Commerce Distribution Center 4-SLLAX113,Map,Map,CA,Los Angeles,CISO,IPP Non-CHP,LA113,,1.2,1.2,1.2,Solar Photovoltaic,SUN,PV,2,2026,"(U) Under construction, less than or equal to 50 percent complete",33.98049,-118.1582
65869,Prologis Logistics Services Incorporated,68239,Romeoville 34A-SLCHI234,Map,Map,IL,Will,PJM,IPP Non-CHP,C34AB,,0.5,0.5,0.5,Batteries,MWH,BA,2,2026,"(TS) Construction complete, but not yet in commercial operation",41.599,-88.111
64904,AES Clean Energy,68418,Keydet Solar Center,Map,Map,VA,Charles City,PJM,IPP Non-CHP,KEYDT,,120,120,120,Solar Photovoltaic,SUN,PV,2,2026,"(V) Under construction, more than 50 percent complete",37.4371,-77.1587
66825,"Blue Summit II Storage, LLC",68456,Blue Summit II Storage,Map,Map,TX,Wilbarger,ERCO,IPP Non-CHP,BSIIS,,150,150,150,Batteries,MWH,BA,2,2026,"(V) Under construction, more than 50 percent complete",34.291934,-99.36776
18454,Tampa Electric Co,68472,Long Branch Solar,Map,Map,FL,Manatee,TEC,Electric Utility,1,,74.5,74.5,74.5,Solar Photovoltaic,SUN,PV,2,2026,"(V) Under construction, more than 50 percent complete",27.62574,-82.17134
66829,"Hill Solar II, LLC",68481,Hill Solar II,Map,Map,TX,Hill,ERCO,IPP Non-CHP,HS2,,200,200,200,Solar Photovoltaic,SUN,PV,2,2026,"(V) Under construction, more than 50 percent complete",32.115203,-97.06783
66853,"Sun Pond, LLC",68492,Sun Pond,Map,Map,AZ,Maricopa,SRP,IPP Non-CHP,GEN01,,85,85,85,Solar Photovoltaic,SUN,PV,2,2026,"(V) Under construction, more than 50 percent complete",33.381198,-112.8216
66853,"Sun Pond, LLC",68492,Sun Pond,Map,Map,AZ,Maricopa,SRP,IPP Non-CHP,GEN02,,85,85,85,Batteries,MWH,BA,2,2026,"(V) Under construction, more than 50 percent complete",33.381198,-112.8216
67192,RWE Clean Energy,68509,"Ventasso Energy Storage, LLC",Map,Map,CA,San Diego,CISO,IPP Non-CHP,VNT,,50,50,50,Batteries,MWH,BA,2,2026,"(V) Under construction, more than 50 percent complete",32.79669,-116.97
7140,Georgia Power Co,68512,McGrau Ford Battery Storage Facility,Map,Map,GA,Cherokee,SOCO,Electric Utility,1,,265,265,265,Batteries,MWH,BA,2,2026,"(U) Under construction, less than or equal to 50 percent complete",34.324977,-84.3289
66904,Boot Hill Solar LLC,68517,Boot Hill Solar,Map,Map,KS,Ford,SWPP,IPP Non-CHP,BHS,,150,150,150,Solar Photovoltaic,SUN,PV,2,2026,"(V) Under construction, more than 50 percent complete",37.693889,-99.98639
58764,"Origis Energy USA, Inc",68534,Wheatland,Map,Map,IN,Knox,MISO,IPP Non-CHP,OEIN1,,150,150,150,Solar Photovoltaic,SUN,PV,2,2026,"(V) Under construction, more than 50 percent complete",38.692248,-87.28772
66918,"Mountain Street Solar Project 2019, LLC",68543,Town of Sharon Portfolio -Mt St Landfill,Map,Map,MA,Norfolk,ISNE,IPP Non-CHP,3850B,,5.7,5.7,5.7,Batteries,MWH,BA,2,2026,"(V) Under construction, more than 50 percent complete",42.102685,-71.15906
66918,"Mountain Street Solar Project 2019, LLC",68543,Town of Sharon Portfolio -Mt St Landfill,Map,Map,MA,Norfolk,ISNE,IPP Non-CHP,3850G,,5,5,5,Solar Photovoltaic,SUN,PV,2,2026,"(V) Under construction, more than 50 percent complete",42.102685,-71.15906
66924,"Pineview Solar, LLC",68549,"Pineview Solar, LLC",Map,Map,GA,Wilcox,SOCO,IPP Non-CHP,PNVW1,,80,80,80,Solar Photovoltaic,SUN,PV,2,2026,"(TS) Construction complete, but not yet in commercial operation",31.995,-83.544
66950,Lydian Energy,68580,Headcamp BESS,Map,Map,TX,Pecos,ERCO,IPP Non-CHP,MHB,,150,150,150,Batteries,MWH,BA,2,2026,"(U) Under construction, less than or equal to 50 percent complete",30.916058,-102.8553
67037,"Tierra Seca BESS, LLC",68748,Tierra Seca,Map,Map,TX,Val Verde,ERCO,IPP Non-CHP,TS,,100,100,100,Batteries,MWH,BA,2,2026,"(U) Under construction, less than or equal to 50 percent complete",29.349111,-100.8734
67069,NY CDG 009 LLC,68783,NY CDG 009,Map,Map,NY,Suffolk,NYIS,IPP Non-CHP,NY009,,1,1,0.5,Solar Photovoltaic,SUN,PV,2,2026,"(V) Under construction, more than 50 percent complete",40.808538,-72.95773
65869,Prologis Logistics Services Incorporated,68790,Dominguez - SLLAX512,Map,Map,CA,Los Angeles,CISO,IPP Non-CHP,LA512,,1.3,1.3,1.3,Solar Photovoltaic,SUN,PV,2,2026,"(TS) Construction complete, but not yet in commercial operation",33.84038,-118.2287
65869,Prologis Logistics Services Incorporated,68794,Tracy 18 - SLCVA418,Map,Map,CA,San Joaquin,CISO,IPP Non-CHP,BS418,,1.5,1.5,1.5,Batteries,MWH,BA,2,2026,"(TS) Construction complete, but not yet in commercial operation",37.753015,-121.3883
65869,Prologis Logistics Services Incorporated,68795,IPC 16 - SLCVA516,Map,Map,CA,San Joaquin,CISO,IPP Non-CHP,CV516,,1.7,1.7,1.7,Solar Photovoltaic,SUN,PV,2,2026,"(TS) Construction complete, but not yet in commercial operation",37.738366,-121.5348
65869,Prologis Logistics Services Incorporated,68796,Stockton 6 - SLEBA202,Map,Map,CA,San Joaquin,CISO,IPP Non-CHP,EB202,,1.1,1.1,1.1,Solar Photovoltaic,SUN,PV,2,2026,"(TS) Construction complete, but not yet in commercial operation",37.896708,-121.2602
67095,"Bell 1 Solar, LLC",68851,Hermes Solar PV,Map,Map,TX,Bell,ERCO,IPP Non-CHP,HSPV1,,100.4,100,100,Solar Photovoltaic,SUN,PV,2,2026,"(V) Under construction, more than 50 percent complete",30.989842,-97.14982
67096,"Bell 1 Storage, LLC",68852,Hermes Storage BESS,Map,Map,TX,Bell,ERCO,IPP Non-CHP,HSBE1,,100.4,100,100,Batteries,MWH,BA,2,2026,"(V) Under construction, more than 50 percent complete",30.981595,-97.1429
67111,Angiola East LLC,68854,Angela Solar Project,Map,Map,CA,Tulare,CISO,IPP Non-CHP,ABESS,,40,20,20,Batteries,MWH,BA,2,2026,"(U) Under construction, less than or equal to 50 percent complete",35.865642,-119.4559
67111,Angiola East LLC,68854,Angela Solar Project,Map,Map,CA,Tulare,CISO,IPP Non-CHP,ANG1,,40,40,40,Solar Photovoltaic,SUN,PV,2,2026,"(V) Under construction, more than 50 percent complete",35.865642,-119.4559
67153,Tesoro RV & Boat Storage,68908,Tesoro RV & Boat Storage,Map,Map,CA,San Joaquin,CISO,Commercial Non-CHP,45067,,2.5,2.5,2.5,Solar Photovoltaic,SUN,PV,2,2026,"(TS) Construction complete, but not yet in commercial operation",37.776626,-121.1869
67192,RWE Clean Energy,68954,Alpaugh BESS,Map,Map,CA,Tulare,CISO,IPP Non-CHP,ALPHB,,10,10,10,Batteries,MWH,BA,2,2026,"(V) Under construction, more than 50 percent complete",35.896993,-119.4465
65539,Pivot Energy,69018,Pivot Solar NY 10,Map,Map,NY,St Lawrence,NYIS,IPP Non-CHP,NY10,,5,5,5,Solar Photovoltaic,SUN,PV,2,2026,"(V) Under construction, more than 50 percent complete",44.673387,-75.48876
67231,"Iron Springs BESS, LLC",69041,Iron Springs BESS,Map,Map,UT,Iron,PACE,IPP Non-CHP,ISBA,,80,80,80,Batteries,MWH,BA,2,2026,"(TS) Construction complete, but not yet in commercial operation",37.728942,-113.1498
67229,"Big Creek Solar (IL), LLC",69043,Big Creek Solar (IL),Map,Map,IL,Macoupin,MISO,IPP Non-CHP,BC25,,5,5,5,Solar Photovoltaic,SUN,PV,2,2026,"(TS) Construction complete, but not yet in commercial operation",39.070944,-90.13983
67230,Platinum Energy Storage LLC,69044,Platinum Storage,Map,Map,TX,Fannin,ERCO,IPP Non-CHP,PLAT,,348,300,300,Batteries,MWH,BA,2,2026,"(V) Under construction, more than 50 percent complete",33.610937,-96.37181
17650,Southern Power Co,69101,Millers Branch Solar,Map,Map,TX,Haskell,ERCO,IPP Non-CHP,MLB01,,200,200,200,Solar Photovoltaic,SUN,PV,2,2026,"(V) Under construction, more than 50 percent complete",33.22132,-99.58652
58509,"Affordable Solar Silver City, LLC",69107,XCEL-1,Map,Map,NM,Chaves,SWPP,IPP Non-CHP,XCL-1,,5,5,5,Solar Photovoltaic,SUN,PV,2,2026,"(V) Under construction, more than 50 percent complete",33.326556,-104.536
67272,"RPCA Solar 8, LLC",69137,Althea Avenue Solar,Map,Map,CA,Fresno,CISO,IPP Non-CHP,ALP1,,5,5,5,Solar Photovoltaic,SUN,PV,2,2026,"(TS) Construction complete, but not yet in commercial operation",36.893121,-120.6569
67299,Sypert Branch Solar LLC,69150,Sypert Branch Solar,Map,Map,TX,Milam,ERCO,IPP Non-CHP,SYPRT,,293.9,260,260,Solar Photovoltaic,SUN,PV,2,2026,"(U) Under construction, less than or equal to 50 percent complete",30.877895,-97.1944
18454,Tampa Electric Co,69165,Bayside Battery Storage,Map,Map,FL,Hillsborough,TEC,Electric Utility,BESS1,,20,20,20,Batteries,MWH,BA,2,2026,"(TS) Construction complete, but not yet in commercial operation",27.90752,-82.41128
61194,Generate Capital,69208,Route 14-1,Map,Map,NY,Ontario,NYIS,IPP Non-CHP,11036,,5,5,5,Solar Photovoltaic,SUN,PV,2,2026,"(V) Under construction, more than 50 percent complete",43.041852,-76.98501
61194,Generate Capital,69209,Route 14-2,Map,Map,NY,Ontario,NYIS,IPP Non-CHP,11037,,5,5,5,Solar Photovoltaic,SUN,PV,2,2026,"(V) Under construction, more than 50 percent complete",43.042769,-76.9809
67333,GoldenMax Energy Inc,69226,Knapp BESS,Map,Map,TX,Scurry,ERCO,IPP Non-CHP,KNBA1,,10,10,10,Batteries,MWH,BA,2,2026,"(V) Under construction, more than 50 percent complete",32.6913,-101.0515
67340,"Sunset Road Solar 3, LLC",69231,Sunset Road Solar 3,Map,Map,IL,Macoupin,MISO,IPP Non-CHP,SR3,,5,5,5,Solar Photovoltaic,SUN,PV,2,2026,"(V) Under construction, more than 50 percent complete",39.150791,-89.768
67341,"Sunset Road Solar 4, LLC",69232,Sunset Road Solar 4,Map,Map,IL,Macoupin,MISO,IPP Non-CHP,SR4,,2.5,2.5,2.5,Solar Photovoltaic,SUN,PV,2,2026,"(V) Under construction, more than 50 percent complete",39.150791,-89.768
67343,CleanAmps AssetCo LLC,69234,Meadow Park Energy Center,Map,Map,TX,Tarrant,ERCO,IPP Non-CHP,MPBA1,,9.9,9.9,9.9,Batteries,MWH,BA,2,2026,"(V) Under construction, more than 50 percent complete",32.84591,-97.22742
56990,NJR Clean Energy Ventures Corporation,69249,National Park Solar,Map,Map,NJ,Gloucester,PJM,IPP Non-CHP,NTLPK,,6,6,6,Solar Photovoltaic,SUN,PV,2,2026,"(V) Under construction, more than 50 percent complete",39.860635,-75.17987
67357,"Vertus Energy Storage, LLC",69255,Vertus Energy Storage Plant,Map,Map,TX,Galveston,ERCO,IPP Non-CHP,VESP1,,200,200,200,Batteries,MWH,BA,2,2026,"(U) Under construction, less than or equal to 50 percent complete",29.392994,-95.03924
67314,Rockhound Sol,69266,Rockhound Sol Solar CSG,Map,Map,NM,Luna,PNM,IPP Non-CHP,ROCKH,,4,4,4,Solar Photovoltaic,SUN,PV,2,2026,"(V) Under construction, more than 50 percent complete",32.1617,-107.8022
67316,Juniper Sol Solar,69270,Juniper Sol Solar CSG,Map,Map,NM,Santa Fe,PNM,IPP Non-CHP,JUNIP,,5,5,5,Solar Photovoltaic,SUN,PV,2,2026,"(V) Under construction, more than 50 percent complete",35.5089,-105.9517
67388,Grenergy USA LLC,69296,BESS La Feria,Map,Map,TX,Cameron,ERCO,IPP Non-CHP,LFBA1,,10,10,10,Batteries,MWH,BA,2,2026,"(TS) Construction complete, but not yet in commercial operation",26.116879,-97.81167
67388,Grenergy USA LLC,69297,BESS Stadium,Map,Map,TX,Jim Wells,ERCO,IPP Non-CHP,STBA1,,10,10,10,Batteries,MWH,BA,2,2026,"(TS) Construction complete, but not yet in commercial operation",27.745926,-98.05444
11479,Madison Gas & Electric Co,69311,Blount BESS,Map,Map,WI,Dane,MISO,Electric Utility,BLTB,,7,7,7,Batteries,MWH,BA,2,2026,"(V) Under construction, more than 50 percent complete",43.078904,-89.37388
11479,Madison Gas & Electric Co,69312,Huiskamp BESS,Map,Map,WI,Dane,MISO,Electric Utility,HKPB,,7,7,7,Batteries,MWH,BA,2,2026,"(V) Under construction, more than 50 percent complete",43.158256,-89.41138
11479,Madison Gas & Electric Co,69313,West Middleton BESS,Map,Map,WI,Dane,MISO,Electric Utility,WMB,,7,7,7,Batteries,MWH,BA,2,2026,"(V) Under construction, more than 50 percent complete",43.093352,-89.56979
67404,Regis Laureles LLC,69337,Regis Laureles,Map,Map,TX,Cameron,ERCO,IPP Non-CHP,LAURE,,9.9,9.9,9.9,Batteries,MWH,BA,2,2026,"(TS) Construction complete, but not yet in commercial operation",26.122395,-97.54792
67409,Regis Milton LLC,69342,Regis Milton,Map,Map,TX,Karnes,ERCO,IPP Non-CHP,MILT,,9.9,9.9,9.9,Batteries,MWH,BA,2,2026,"(TS) Construction complete, but not yet in commercial operation",29.057397,-97.78802
67448,"Honeycomb Solar Holdco, LLC",69351,Honeycomb Solar and Storage,Map,Map,TX,Bee,ERCO,IPP Non-CHP,HNYBS,,76.5,76.5,76.5,Batteries,MWH,BA,2,2026,"(U) Under construction, less than or equal to 50 percent complete",28.184344,-97.77169
67448,"Honeycomb Solar Holdco, LLC",69351,Honeycomb Solar and Storage,Map,Map,TX,Bee,ERCO,IPP Non-CHP,HNYPV,,74.8,74.8,74.8,Solar Photovoltaic,SUN,PV,2,2026,"(U) Under construction, less than or equal to 50 percent complete",28.184344,-97.77169
67424,Machias PV LLC,69376,Machias PV,Map,Map,NY,Cattaraugus,NYIS,IPP Non-CHP,MACHI,,2,2,2,Solar Photovoltaic,SUN,PV,2,2026,"(V) Under construction, more than 50 percent complete",42.40904,-78.49085
67470,AETS AM LLC,69416,Aggreko MSR Grid PC2,Map,Map,TX,Nueces,ERCO,IPP Non-CHP,PC2,,10,10,10,Batteries,MWH,BA,2,2026,"(TS) Construction complete, but not yet in commercial operation",27.8059,-97.4612
67470,AETS AM LLC,69417,Aggreko MSR Grid PC5,Map,Map,TX,Cameron,ERCO,IPP Non-CHP,PC5,,10,10,10,Batteries,MWH,BA,2,2026,"(TS) Construction complete, but not yet in commercial operation",26.192063,-97.66029
67470,AETS AM LLC,69418,Aggreko MSR Grid PC7,Map,Map,TX,Cameron,ERCO,IPP Non-CHP,PC7,,10,10,10,Batteries,MWH,BA,2,2026,"(TS) Construction complete, but not yet in commercial operation",26.0014,-97.5218
65869,Prologis Logistics Services Incorporated,69434,Gourmet Lane - SLNNJ480,Map,Map,NJ,Middlesex,PJM,IPP Non-CHP,NN480,,2,2,2,Solar Photovoltaic,SUN,PV,2,2026,"(TS) Construction complete, but not yet in commercial operation",40.52556,-74.36584
65869,Prologis Logistics Services Incorporated,69436,Prologis Portside 2509 - SLSAV502,Map,Map,GA,Chatham,SOCO,IPP Non-CHP,SA502,,2.2,2.2,2.2,Solar Photovoltaic,SUN,PV,2,2026,"(TS) Construction complete, but not yet in commercial operation",32.122059,-81.17755
65869,Prologis Logistics Services Incorporated,69438,Prologis Edison 0405 - SLCNJ405,Map,Map,NJ,Middlesex,PJM,IPP Non-CHP,CN405,,1.2,1.2,1.2,Solar Photovoltaic,SUN,PV,2,2026,"(TS) Construction complete, but not yet in commercial operation",40.517751,-74.41737
5416,"Duke Energy Carolinas, LLC",69446,Frieden,Map,Map,NC,Guilford,DUK,Electric Utility,FRD1,,3.5,3.5,3.5,Batteries,MWH,BA,2,2026,"(TS) Construction complete, but not yet in commercial operation",36.116506,-79.54658
20847,Wisconsin Electric Power Co,69503,"Perch Solar WI, LLC",Map,Map,WI,Winnebago,MISO,Electric Utility,20257,,6,6,6,Solar Photovoltaic,SUN,PV,2,2026,"(TS) Construction complete, but not yet in commercial operation",44.109735,-88.51583
60531,Standard Solar,69558,Pluma - SLT Grant,Map,Map,NM,Grant,PNM,IPP Non-CHP,GRANT,,4.8,4.8,4.8,Solar Photovoltaic,SUN,PV,2,2026,"(TS) Construction complete, but not yet in commercial operation",32.762349,-108.1793
60531,Standard Solar,69559,Pluma - SLT Hidalgo,Map,Map,NM,Hidalgo,PNM,IPP Non-CHP,DALGO,,3.8,3.8,3.8,Solar Photovoltaic,SUN,PV,2,2026,"(TS) Construction complete, but not yet in commercial operation",32.370399,-108.7079
60531,Standard Solar,69570,Kieffer Funk,Map,Map,MD,Washington,PJM,IPP Non-CHP,KIEFF,,12,12,12,Solar Photovoltaic,SUN,PV,2,2026,"(TS) Construction complete, but not yet in commercial operation",39.62498,-77.6435
67540,"Amiscope Nordhoff, LP",69591,20525 Nordhoff PV (North),Map,Map,CA,Los Angeles,LDWP,IPP Non-CHP,20525,,1.9,1.9,1.9,Solar Photovoltaic,SUN,PV,2,2026,"(TS) Construction complete, but not yet in commercial operation",34.235572,-118.5811
807,Arkansas Electric Coop Corp,201,Thomas Fitzhugh,Map,Map,AR,Franklin,SWPP,Electric Utility,4,,69.3,46.5,46.5,Natural Gas Fired Combustion Turbine,NG,GT,3,2026,"(V) Under construction, more than 50 percent complete",35.462382,-93.80493
14199,City of Osage City - (KS),1313,Osage City,Map,Map,KS,Osage,SWPP,Electric Utility,11,,2,1.9,2,Petroleum Liquids,DFO,IC,3,2026,"(V) Under construction, more than 50 percent complete",38.633183,-95.82766
14199,City of Osage City - (KS),1313,Osage City,Map,Map,KS,Osage,SWPP,Electric Utility,12,,2,1.9,2,Petroleum Liquids,DFO,IC,3,2026,"(V) Under construction, more than 50 percent complete",38.633183,-95.82766
64843,"Dakota County, MN",50328,Byllesby,Map,Map,MN,Dakota,MISO,Electric Utility,NOR-1,,2,2,2,Conventional Hydroelectric,WAT,HY,3,2026,"(TS) Construction complete, but not yet in commercial operation",44.5119,-92.9394
64843,"Dakota County, MN",50328,Byllesby,Map,Map,MN,Dakota,MISO,Electric Utility,SOU-2,,2,2,2,Conventional Hydroelectric,WAT,HY,3,2026,"(TS) Construction complete, but not yet in commercial operation",44.5119,-92.9394
16572,Salt River Project,58413,Copper Crossing Energy and Research Cent,Map,Map,AZ,Pinal,SRP,Electric Utility,CXS02,,17.6,16.4,17.6,Solar Photovoltaic,SUN,PV,3,2026,"(U) Under construction, less than or equal to 50 percent complete",33.15512,-111.4836
7140,Georgia Power Co,61648,Robins Air Force Base Solar,Map,Map,GA,Bibb,SOCO,Electric Utility,2,,128,128,128,Batteries,MWH,BA,3,2026,"(U) Under construction, less than or equal to 50 percent complete",32.681222,-83.61639
7140,Georgia Power Co,62377,Moody Air Force Base Solar,Map,Map,GA,Lowndes,SOCO,Electric Utility,2,,49.5,49.5,49.5,Batteries,MWH,BA,3,2026,"(U) Under construction, less than or equal to 50 percent complete",30.9574,-83.2229
62664,"Lock 14 Hydro Partners, LLC",62749,Heidelberg Hydroelectric Project,Map,Map,KY,Lee,PJM,IPP Non-CHP,1,,0.6,0.6,0.6,Conventional Hydroelectric,WAT,HY,3,2026,"(V) Under construction, more than 50 percent complete",37.552399,-83.77001
62664,"Lock 14 Hydro Partners, LLC",62749,Heidelberg Hydroelectric Project,Map,Map,KY,Lee,PJM,IPP Non-CHP,2,,0.6,0.6,0.6,Conventional Hydroelectric,WAT,HY,3,2026,"(V) Under construction, more than 50 percent complete",37.552399,-83.77001
62664,"Lock 14 Hydro Partners, LLC",62749,Heidelberg Hydroelectric Project,Map,Map,KY,Lee,PJM,IPP Non-CHP,3,,0.2,0.2,0.2,Conventional Hydroelectric,WAT,HY,3,2026,"(V) Under construction, more than 50 percent complete",37.552399,-83.77001
62664,"Lock 14 Hydro Partners, LLC",62749,Heidelberg Hydroelectric Project,Map,Map,KY,Lee,PJM,IPP Non-CHP,4,,0.2,0.2,0.2,Conventional Hydroelectric,WAT,HY,3,2026,"(V) Under construction, more than 50 percent complete",37.552399,-83.77001
62664,"Lock 14 Hydro Partners, LLC",62749,Heidelberg Hydroelectric Project,Map,Map,KY,Lee,PJM,IPP Non-CHP,5,,0.6,0.6,0.6,Conventional Hydroelectric,WAT,HY,3,2026,"(V) Under construction, more than 50 percent complete",37.552399,-83.77001
62664,"Lock 14 Hydro Partners, LLC",62749,Heidelberg Hydroelectric Project,Map,Map,KY,Lee,PJM,IPP Non-CHP,6,,0.6,0.6,0.6,Conventional Hydroelectric,WAT,HY,3,2026,"(V) Under construction, more than 50 percent complete",37.552399,-83.77001
65640,Vineyard Wind 1 LLC,63093,Vineyard Wind 1,Map,Map,MA,Dukes,ISNE,IPP Non-CHP,VW01,,800,800,800,Offshore Wind Turbine,WND,WS,3,2026,"(TS) Construction complete, but not yet in commercial operation",41.047111,-70.48738
63243,"Solar Carver 3, LLC",63506,Solar Carver 3 Hybrid,Map,Map,MA,Plymouth,ISNE,IPP Non-CHP,BCRV3,,1,1,1,Batteries,MWH,BA,3,2026,"(V) Under construction, more than 50 percent complete",41.84206,-70.7699
63243,"Solar Carver 3, LLC",63506,Solar Carver 3 Hybrid,Map,Map,MA,Plymouth,ISNE,IPP Non-CHP,SCRV3,,1,1,1,Solar Photovoltaic,SUN,PV,3,2026,"(V) Under construction, more than 50 percent complete",41.84206,-70.7699
63257,"Solar Carver 1, LLC",63541,Solar Carver 1 Hybrid,Map,Map,MA,Plymouth,ISNE,IPP Non-CHP,BCRV1,,2,2,2,Batteries,MWH,BA,3,2026,"(V) Under construction, more than 50 percent complete",41.824474,-70.75292
63257,"Solar Carver 1, LLC",63541,Solar Carver 1 Hybrid,Map,Map,MA,Plymouth,ISNE,IPP Non-CHP,SCRV1,,2,2,2,Solar Photovoltaic,SUN,PV,3,2026,"(V) Under construction, more than 50 percent complete",41.824474,-70.75292
14063,Oklahoma Gas & Electric Co,63628,Tinker,Map,Map,OK,Oklahoma,SWPP,Electric Utility,1,,48.1,48,48,Natural Gas Fired Combustion Turbine,NG,GT,3,2026,"(TS) Construction complete, but not yet in commercial operation",35.414719,-97.37345
14063,Oklahoma Gas & Electric Co,63628,Tinker,Map,Map,OK,Oklahoma,SWPP,Electric Utility,2,,48.1,48,48,Natural Gas Fired Combustion Turbine,NG,GT,3,2026,"(TS) Construction complete, but not yet in commercial operation",35.414719,-97.37345
57313,Tesla Inc.,64098,Tesla Reno GigaFactory,Map,Map,NV,Storey,NEVP,Industrial Non-CHP,3,,1,1,1,Solar Photovoltaic,SUN,PV,3,2026,"(TS) Construction complete, but not yet in commercial operation",39.539511,-119.4392
63726,Vistra Zero LLC,64132,Oak Hill - Dry Creek,Map,Map,TX,Rusk,ERCO,IPP Non-CHP,PV1,,200,200,200,Solar Photovoltaic,SUN,PV,3,2026,"(V) Under construction, more than 50 percent complete",32.212257,-94.73632
67192,RWE Clean Energy,64202,"Big Star Solar, LLC (Hybrid)",Map,Map,TX,Bastrop,ERCO,IPP Non-CHP,BGSTB,,80,80,80,Batteries,MWH,BA,3,2026,"(TS) Construction complete, but not yet in commercial operation",29.894053,-97.27054
56201,Engie North America,64531,Noosa Energy Storage LLC,Map,Map,CA,San Joaquin,CISO,IPP Non-CHP,KOV4A,,99,99,99,Batteries,MWH,BA,3,2026,"(U) Under construction, less than or equal to 50 percent complete",37.756292,-121.1481
64438,"Enel Green Power Roseland Solar, LLC",65028,"Roseland Solar Project, LLC",Map,Map,TX,Falls,ERCO,IPP Non-CHP,ROSES,,500,500,500,Solar Photovoltaic,SUN,PV,3,2026,"(TS) Construction complete, but not yet in commercial operation",31.461242,-96.82493
57313,Tesla Inc.,65070,Austin TX GigaFactory,Map,Map,TX,Travis,ERCO,Industrial Non-CHP,A04,,2.3,2.3,2.3,Solar Photovoltaic,SUN,PV,3,2026,"(TS) Construction complete, but not yet in commercial operation",30.22021,-97.61968
57313,Tesla Inc.,65072,Fremont CA AutoFactory,Map,Map,CA,Alameda,CISO,Industrial Non-CHP,GA3,,1.5,1.5,1.5,Solar Photovoltaic,SUN,PV,3,2026,"(U) Under construction, less than or equal to 50 percent complete",37.49254,-121.9446
57313,Tesla Inc.,65072,Fremont CA AutoFactory,Map,Map,CA,Alameda,CISO,Industrial Non-CHP,GVSRS,,0.5,0.5,0.5,Solar Photovoltaic,SUN,PV,3,2026,"(V) Under construction, more than 50 percent complete",37.49254,-121.9446
57313,Tesla Inc.,65072,Fremont CA AutoFactory,Map,Map,CA,Alameda,CISO,Industrial Non-CHP,STAMP,,1.4,1.4,1.4,Solar Photovoltaic,SUN,PV,3,2026,"(TS) Construction complete, but not yet in commercial operation",37.49254,-121.9446
57313,Tesla Inc.,65072,Fremont CA AutoFactory,Map,Map,CA,Alameda,CISO,Industrial Non-CHP,VSRS,,0.4,0.4,0.4,Solar Photovoltaic,SUN,PV,3,2026,"(TS) Construction complete, but not yet in commercial operation",37.49254,-121.9446
57313,Tesla Inc.,65130,City of Bowie,Map,Map,MD,Prince Georges,PJM,IPP Non-CHP,PV2,,2,2,2,Solar Photovoltaic,SUN,PV,3,2026,"(U) Under construction, less than or equal to 50 percent complete",38.904641,-76.68877
5504,Vistra Corp,65401,Newton Solar BESS LLC,Map,Map,IL,Jasper,MISO,IPP Non-CHP,BA,,2,2,2,Batteries,MWH,BA,3,2026,"(V) Under construction, more than 50 percent complete",38.9361,-88.2781
5504,Vistra Corp,65401,Newton Solar BESS LLC,Map,Map,IL,Jasper,MISO,IPP Non-CHP,PV,,52,52,52,Solar Photovoltaic,SUN,PV,3,2026,"(TS) Construction complete, but not yet in commercial operation",38.9361,-88.2781
65815,Sunraycer Assets I LLC,66342,Gaia Hybrid,Map,Map,TX,Navarro,ERCO,IPP Non-CHP,GAIAB,,76.8,76.8,76.8,Batteries,MWH,BA,3,2026,"(V) Under construction, more than 50 percent complete",32.160767,-96.19527
65815,Sunraycer Assets I LLC,66342,Gaia Hybrid,Map,Map,TX,Navarro,ERCO,IPP Non-CHP,GAIAS,,152.7,152.7,152.7,Solar Photovoltaic,SUN,PV,3,2026,"(V) Under construction, more than 50 percent complete",32.160767,-96.19527
65451,Grizzly Ridge Solar LLC,66410,Grizzly Ridge Solar,Map,Map,TX,Hamilton,ERCO,IPP Non-CHP,596,,10,10,10,Batteries,MWH,BA,3,2026,"(TS) Construction complete, but not yet in commercial operation",31.738177,-98.21374
62842,"Lightsource Renewable Energy Asset Management, LLC",66441,Crossvine Solar,Map,Map,IN,Dubois,MISO,IPP Non-CHP,INCV1,,100,100,100,Solar Photovoltaic,SUN,PV,3,2026,(OT) Other,38.264271,-87.00189
65567,"Catalyze Pasadena 10585 Red Bluff Road Microgrid, LLC",66519,TX Pasadena 10585 Red Bluff Road Solar,Map,Map,TX,Harris,ERCO,IPP Non-CHP,19503,,2.4,2.4,2.4,Solar Photovoltaic,SUN,PV,3,2026,"(TS) Construction complete, but not yet in commercial operation",29.614979,-95.07023
65691,"Branch Solar, LLC",66697,Branch Solar Project,Map,Map,MI,Branch,MISO,IPP Non-CHP,BS1,,200,200,200,Solar Photovoltaic,SUN,PV,3,2026,"(V) Under construction, more than 50 percent complete",41.883487,-85.0733
60025,Greenbacker Renewable Energy Corporation,66768,Hogs Bay,Map,Map,ME,Hancock,ISNE,IPP Non-CHP,694,,2,2,2,Solar Photovoltaic,SUN,PV,3,2026,"(V) Under construction, more than 50 percent complete",44.57579,-68.19965
65805,"GulfStar Power, LLC",66871,"GulfStar Power, LLC",Map,Map,TX,Wharton,ERCO,IPP Non-CHP,SOLAR,,451.6,451.6,451.6,Solar Photovoltaic,SUN,PV,3,2026,"(TS) Construction complete, but not yet in commercial operation",29.191296,-95.96752
65830,"Myrtle Storage, LLC",66913,Myrtle Storage,Map,Map,TX,Brazoria,ERCO,IPP Non-CHP,MYRST,,150,150,150,Batteries,MWH,BA,3,2026,"(TS) Construction complete, but not yet in commercial operation",29.227753,-95.42806
65831,"Danish Fields Solar, LLC",66914,"Danish Fields Solar, LLC",Map,Map,TX,Wharton,ERCO,IPP Non-CHP,DAN,,600,600,600,Solar Photovoltaic,SUN,PV,3,2026,"(TS) Construction complete, but not yet in commercial operation",29.013637,-96.22054
65832,"Cottonwood Bayou Solar, LLC",66915,Cottonwood Bayou Solar,Map,Map,TX,Brazoria,ERCO,IPP Non-CHP,CTW,,350,350,350,Solar Photovoltaic,SUN,PV,3,2026,"(TS) Construction complete, but not yet in commercial operation",29.263123,-95.258
65833,"Danish Fields Storage, LLC",66916,Danish Fields Storage,Map,Map,TX,Wharton,ERCO,IPP Non-CHP,DANST,,150,150,150,Batteries,MWH,BA,3,2026,"(TS) Construction complete, but not yet in commercial operation",29.013637,-96.22054
66018,"Excel Advantage Services, LLC",67123,Fagus Solar Park,Map,Map,TX,Childress,ERCO,IPP Non-CHP,MISII,,331.6,331.6,331.6,Solar Photovoltaic,SUN,PV,3,2026,"(V) Under construction, more than 50 percent complete",34.350994,-100.0493
66141,Solar PV Development NM 18 II LLC,67260,Solar PV Development NM 18 II LLC,Map,Map,NM,Luna,EPE,IPP Non-CHP,SPD,,130,130,130,Solar Photovoltaic,SUN,PV,3,2026,"(TS) Construction complete, but not yet in commercial operation",32.31478,-107.678
66145,"Highland Ave Solar 1, LLC",67279,Borrego - Highland Ave,Map,Map,MA,Bristol,ISNE,IPP Non-CHP,6572,,5,5,5,Solar Photovoltaic,SUN,PV,3,2026,"(U) Under construction, less than or equal to 50 percent complete",41.661525,-71.05998
66145,"Highland Ave Solar 1, LLC",67279,Borrego - Highland Ave,Map,Map,MA,Bristol,ISNE,IPP Non-CHP,6572B,,5,5,5,Batteries,MWH,BA,3,2026,"(U) Under construction, less than or equal to 50 percent complete",41.661525,-71.05998
64904,AES Clean Energy,67413,Geer Road Solar 3,Map,Map,NY,Washington,NYIS,IPP Non-CHP,GEER3,,5,5,5,Solar Photovoltaic,SUN,PV,3,2026,"(V) Under construction, more than 50 percent complete",43.354,-73.571
11135,City of Logan - (UT),67445,Logan City 2,Map,Map,UT,Cache,PACE,Electric Utility,1,,2.5,2.5,2.5,Natural Gas Fired Combustion Turbine,NG,GT,3,2026,"(V) Under construction, more than 50 percent complete",41.69976,-111.8598
11135,City of Logan - (UT),67445,Logan City 2,Map,Map,UT,Cache,PACE,Electric Utility,2,,2.5,2.5,2.5,Natural Gas Fired Combustion Turbine,NG,GT,3,2026,"(V) Under construction, more than 50 percent complete",41.69976,-111.8598
11135,City of Logan - (UT),67445,Logan City 2,Map,Map,UT,Cache,PACE,Electric Utility,3,,2.5,2.5,2.5,Natural Gas Fired Combustion Turbine,NG,GT,3,2026,"(V) Under construction, more than 50 percent complete",41.69976,-111.8598
11135,City of Logan - (UT),67445,Logan City 2,Map,Map,UT,Cache,PACE,Electric Utility,4,,2.5,2.5,2.5,Natural Gas Fired Combustion Turbine,NG,GT,3,2026,"(V) Under construction, more than 50 percent complete",41.69976,-111.8598
66300,NY CDG Genesee 1 LLC,67609,NY ELBA 7195 OAK ORCHARD RD - Genesee 1,Map,Map,NY,Genesee,NYIS,IPP Non-CHP,21599,,5,5,5,Solar Photovoltaic,SUN,PV,3,2026,"(U) Under construction, less than or equal to 50 percent complete",43.064414,-78.18456
67192,RWE Clean Energy,67701,Ashwood Solar I,Map,Map,KY,Lyon,LGEE,IPP Non-CHP,AS1,,86,86,86,Solar Photovoltaic,SUN,PV,3,2026,"(TS) Construction complete, but not yet in commercial operation",37.02343,-88.08052
5109,DTE Electric Company,67756,Mission Road Solar Park,Map,Map,MI,Isabella,MISO,Electric Utility,MSRSP,,172,172,172,Solar Photovoltaic,SUN,PV,3,2026,"(TS) Construction complete, but not yet in commercial operation",43.68358,-84.78521
66367,"Pittsburg RV & Boat Storage, LLC",67770,Pittsburg RV Solar,Map,Map,CA,Contra Costa,CISO,Commercial Non-CHP,30200,,2.8,2.9,2.9,Solar Photovoltaic,SUN,PV,3,2026,"(TS) Construction complete, but not yet in commercial operation",38.01155,-121.8453
66540,"Apex NC Solar, LLC",67997,Apex NC Solar,Map,Map,NC,Cleveland,DUK,IPP Non-CHP,PGR28,,28.9,28.9,28.9,Solar Photovoltaic,SUN,PV,3,2026,"(V) Under construction, more than 50 percent complete",35.415022,-81.47812
66544,"Foley Solar, LLC",68002,"Foley Solar, LLC",Map,Map,AL,Baldwin,SOCO,IPP Non-CHP,FOLEY,,80,80,80,Solar Photovoltaic,SUN,PV,3,2026,"(TS) Construction complete, but not yet in commercial operation",30.377488,-87.72751
50123,"Leeward Asset Management, LLC",68088,Twelvemile Solar 1,Map,Map,OK,Mayes,SWPP,IPP Non-CHP,TS1,,152,152,152,Solar Photovoltaic,SUN,PV,3,2026,"(V) Under construction, more than 50 percent complete",36.331569,-95.22931
66583,"SR Arcadia South, LLC",68094,SR Arcadia,Map,Map,LA,Bienville,MISO,IPP Non-CHP,ARCAD,,4.5,4.5,4.5,Solar Photovoltaic,SUN,PV,3,2026,"(V) Under construction, more than 50 percent complete",32.56461,-92.92538
66584,"SR Benton, LLC",68095,SR Benton,Map,Map,TN,Benton,TVA,IPP Non-CHP,BENTN,,3,3,3,Solar Photovoltaic,SUN,PV,3,2026,"(V) Under construction, more than 50 percent complete",35.879945,-88.15833
66586,"SR Cherry Valley, LLC",68097,SR Cherry Valley,Map,Map,AR,Cross,MISO,IPP Non-CHP,CHERR,,4.8,4.8,4.8,Solar Photovoltaic,SUN,PV,3,2026,"(V) Under construction, more than 50 percent complete",35.372893,-90.7708
66590,"SR Fisher, LLC",68101,SR Fisher,Map,Map,AR,Poinsett,MISO,IPP Non-CHP,FISHR,,4.8,4.8,4.8,Solar Photovoltaic,SUN,PV,3,2026,"(V) Under construction, more than 50 percent complete",35.500413,-90.96679
66592,"SR Hickman, LLC",68103,SR Hickman,Map,Map,TN,Hickman,TVA,IPP Non-CHP,HICK,,5.5,5.5,5.5,Solar Photovoltaic,SUN,PV,3,2026,"(V) Under construction, more than 50 percent complete",35.92802,-87.27945
66598,"SR South Gibson, LLC",68112,SR South Gibson,Map,Map,TN,Gibson,TVA,IPP Non-CHP,GIBSN,,4.8,4.8,4.8,Solar Photovoltaic,SUN,PV,3,2026,"(V) Under construction, more than 50 percent complete",35.826426,-88.81739
65869,Prologis Logistics Services Incorporated,68132,Elk Grove 1-SLCHI701,Map,Map,IL,Cook,PJM,IPP Non-CHP,CH701,,1.7,1.7,1.7,Solar Photovoltaic,SUN,PV,3,2026,"(V) Under construction, more than 50 percent complete",42.010416,-87.958
65869,Prologis Logistics Services Incorporated,68138,Internationale Ctr 11-SLCHI321,Map,Map,IL,DuPage,PJM,IPP Non-CHP,CH321,,1.8,1.8,1.8,Solar Photovoltaic,SUN,PV,3,2026,"(U) Under construction, less than or equal to 50 percent complete",41.70053,-88.02744
66635,"Rio Lago Solar, LLC",68155,Rio Lago Solar,Map,Map,TX,Bandera,ERCO,IPP Non-CHP,RIOLA,,123,123,123,Solar Photovoltaic,SUN,PV,3,2026,"(TS) Construction complete, but not yet in commercial operation",29.756134,-99.09524
66625,"Lotus Wind, LLC",68192,Lotus Wind,Map,Map,IL,Macoupin,MISO,IPP Non-CHP,LOTUS,,200,200,200,Onshore Wind Turbine,WND,WT,3,2026,"(V) Under construction, more than 50 percent complete",39.49844,-89.9302
5416,"Duke Energy Carolinas, LLC",68223,Beaverdam Renewable Energy Center,Map,Map,SC,Laurens,DUK,Electric Utility,67693,,40.8,42,42,Solar Photovoltaic,SUN,PV,3,2026,"(U) Under construction, less than or equal to 50 percent complete",34.64611,-82.03086
65043,Madison Energy Investments LLC,68392,IL2 - W109,Map,Map,IL,Will,PJM,IPP Non-CHP,IL2PV,,4.9,4.9,4.9,Solar Photovoltaic,SUN,PV,3,2026,"(U) Under construction, less than or equal to 50 percent complete",41.470454,-88.02366
66782,"Brazoria Solar i, LLC",68410,Brazoria Solar I,Map,Map,TX,Brazoria,ERCO,IPP Non-CHP,BRAZ,,125,125,125,Solar Photovoltaic,SUN,PV,3,2026,"(TS) Construction complete, but not yet in commercial operation",29.138777,-95.37108
66782,"Brazoria Solar i, LLC",68410,Brazoria Solar I,Map,Map,TX,Brazoria,ERCO,IPP Non-CHP,BRAZ2,,125,125,125,Solar Photovoltaic,SUN,PV,3,2026,"(TS) Construction complete, but not yet in commercial operation",29.138777,-95.37108
66817,"KDC Solar Madera, LLC",68427,Ardagh Solar,Map,Map,CA,Madera,CISO,IPP Non-CHP,1,,12.9,10,10,Solar Photovoltaic,SUN,PV,3,2026,"(V) Under construction, more than 50 percent complete",36.921281,-120.1083
66798,"Imperator Solar, LLC",68465,Imperator Solar,Map,Map,CA,Kern,CISO,Industrial Non-CHP,22324,,2,2,1.3,Solar Photovoltaic,SUN,PV,3,2026,"(TS) Construction complete, but not yet in commercial operation",35.4932,-119.1659
66217,Copia Power,68466,Centennial Flats,Map,Map,AZ,La Paz,AZPS,IPP Non-CHP,CFB1,,89,89,89,Batteries,MWH,BA,3,2026,"(U) Under construction, less than or equal to 50 percent complete",33.588334,-113.5283
66217,Copia Power,68466,Centennial Flats,Map,Map,AZ,La Paz,AZPS,IPP Non-CHP,CFB2,,89,89,89,Batteries,MWH,BA,3,2026,"(U) Under construction, less than or equal to 50 percent complete",33.588334,-113.5283
66217,Copia Power,68466,Centennial Flats,Map,Map,AZ,La Paz,AZPS,IPP Non-CHP,CFB3,,89,89,89,Batteries,MWH,BA,3,2026,"(U) Under construction, less than or equal to 50 percent complete",33.588334,-113.5283
66217,Copia Power,68466,Centennial Flats,Map,Map,AZ,La Paz,AZPS,IPP Non-CHP,CFPV1,,166.7,166.7,166.7,Solar Photovoltaic,SUN,PV,3,2026,"(U) Under construction, less than or equal to 50 percent complete",33.588334,-113.5283
66217,Copia Power,68466,Centennial Flats,Map,Map,AZ,La Paz,AZPS,IPP Non-CHP,CFPV2,,166.7,166.7,166.7,Solar Photovoltaic,SUN,PV,3,2026,"(U) Under construction, less than or equal to 50 percent complete",33.588334,-113.5283
66217,Copia Power,68466,Centennial Flats,Map,Map,AZ,La Paz,AZPS,IPP Non-CHP,CFPV3,,166.7,166.7,166.7,Solar Photovoltaic,SUN,PV,3,2026,"(U) Under construction, less than or equal to 50 percent complete",33.588334,-113.5283
66848,VESI 15 LLC,68494,Shirk Energy Storage,Map,Map,CA,Tulare,CISO,IPP Non-CHP,SHRK1,,80,80,80,Batteries,MWH,BA,3,2026,"(V) Under construction, more than 50 percent complete",36.350826,-119.3735
67192,RWE Clean Energy,68499,"Crowned Heron 1 - Storage, LLC",Map,Map,TX,Fort Bend,ERCO,IPP Non-CHP,CWHBA,,150,150,150,Batteries,MWH,BA,3,2026,"(TS) Construction complete, but not yet in commercial operation",29.482231,-95.61892
67192,RWE Clean Energy,68500,"Crowned Heron 2 - Storage, LLC",Map,Map,TX,Fort Bend,ERCO,IPP Non-CHP,CWH2,,150,150,150,Batteries,MWH,BA,3,2026,"(V) Under construction, more than 50 percent complete",29.482673,-95.61996
20856,Wisconsin Power & Light Co,68501,McFarland Schools Customer Hosted,Map,Map,WI,Dane,MISO,Electric Utility,PV1,,1.4,1.4,1.4,Solar Photovoltaic,SUN,PV,3,2026,"(V) Under construction, more than 50 percent complete",43.02369,-89.26745
60531,Standard Solar,68526,Kama 1 LLC,Map,Map,CA,Mendocino,CISO,IPP Non-CHP,11B,,0.4,0.4,0.4,Batteries,MWH,BA,3,2026,"(TS) Construction complete, but not yet in commercial operation",38.991116,-123.1027
66908,Flatland Storage LLC,68529,Flatland Storage,Map,Map,AZ,Pinal,SRP,IPP Non-CHP,FS01,,200,200,200,Batteries,MWH,BA,3,2026,"(TS) Construction complete, but not yet in commercial operation",32.919198,-111.4989
66916,"Camino del Sol 2 Solar Project 2022, LLC",68540,Bayer Oxnard - Meter# 4719,Map,Map,CA,Ventura,CISO,IPP Non-CHP,6245,,1.3,1.3,1.3,Solar Photovoltaic,SUN,PV,3,2026,"(V) Under construction, more than 50 percent complete",34.20337,-119.1394
66950,Lydian Energy,68581,Mendoza Trail BESS,Map,Map,TX,Crane,ERCO,IPP Non-CHP,MTB,,200,200,200,Batteries,MWH,BA,3,2026,"(U) Under construction, less than or equal to 50 percent complete",31.19371,-102.3159
66950,Lydian Energy,68582,Pintail BESS,Map,Map,TX,San Patricio,ERCO,IPP Non-CHP,PPB,,200,200,200,Batteries,MWH,BA,3,2026,"(U) Under construction, less than or equal to 50 percent complete",28.04268,-97.44014
58764,"Origis Energy USA, Inc",68592,Rockhound A,Map,Map,TX,Ector,ERCO,IPP Non-CHP,OERHA,,245,245,245,Solar Photovoltaic,SUN,PV,3,2026,"(V) Under construction, more than 50 percent complete",31.723088,-102.5196
66977,"Las Virgenes Road Solar Project 2022, LLC",68600,Las Virgenes MWD - Composting Plant,Map,Map,CA,Los Angeles,CISO,IPP Non-CHP,7236B,,0.5,0.5,0.5,Batteries,MWH,BA,3,2026,"(V) Under construction, more than 50 percent complete",34.126481,-118.6981
66977,"Las Virgenes Road Solar Project 2022, LLC",68600,Las Virgenes MWD - Composting Plant,Map,Map,CA,Los Angeles,CISO,IPP Non-CHP,7236G,,0.9,0.9,0.9,Solar Photovoltaic,SUN,PV,3,2026,"(V) Under construction, more than 50 percent complete",34.126481,-118.6981
58764,"Origis Energy USA, Inc",68669,Walker Springs II,Map,Map,AL,Clarke,SOCO,IPP Non-CHP,OEALH,,80,80,80,Solar Photovoltaic,SUN,PV,3,2026,"(V) Under construction, more than 50 percent complete",31.435022,-87.70473
17058,Shell Wind Energy Inc.,68786,"Choctaw Fields Solar Project, LLC",Map,Map,OK,Choctaw,SWPP,IPP Non-CHP,USMNC,,85,85,85,Solar Photovoltaic,SUN,PV,3,2026,"(V) Under construction, more than 50 percent complete",34.030703,-95.32214
65265,Repsol Renewables NA,68839,Hecate Energy Longhorn Solar LLC,Map,Map,TX,Jack,ERCO,IPP Non-CHP,RRPS,,650,650,650,Solar Photovoltaic,SUN,PV,3,2026,"(TS) Construction complete, but not yet in commercial operation",33.04417,-98.34052
67097,Limewood Bell Renewables LLC,68853,Limewood Bell Renewables Solar,Map,Map,TX,Bell,ERCO,IPP Non-CHP,LMWOD,,204,204,204,Solar Photovoltaic,SUN,PV,3,2026,"(TS) Construction complete, but not yet in commercial operation",31.129365,-97.26139
67127,"Big Sampson Wind Project, LLC",68873,Big Sampson Wind,Map,Map,TX,Crockett,ERCO,IPP Non-CHP,BIGS,,265,265,265,Onshore Wind Turbine,WND,WT,3,2026,"(TS) Construction complete, but not yet in commercial operation",30.981883,-101.8505
65654,Birch Creek Development,68927,"Adelite Solar, LLC",Map,Map,MO,Caldwell,MISO,IPP Non-CHP,ADELI,,25,25,25,Solar Photovoltaic,SUN,PV,3,2026,"(V) Under construction, more than 50 percent complete",39.75533,-94.01234
65654,Birch Creek Development,68929,"Ruby Solar, LLC",Map,Map,IL,Clinton,MISO,IPP Non-CHP,RUBY,,50,50,50,Solar Photovoltaic,SUN,PV,3,2026,"(V) Under construction, more than 50 percent complete",38.595759,-89.16983
62842,"Lightsource Renewable Energy Asset Management, LLC",68938,"Juliet Energy Project, LLC",Map,Map,OH,Wood,PJM,IPP Non-CHP,OHJE1,,50,50,50,Solar Photovoltaic,SUN,PV,3,2026,"(V) Under construction, more than 50 percent complete",41.343803,-83.81598
65539,Pivot Energy,69034,Pivot Energy Minnesota Solar 2,Map,Map,MN,Kandiyohi,MISO,IPP Non-CHP,PMI2,,1,1,1,Solar Photovoltaic,SUN,PV,3,2026,"(V) Under construction, more than 50 percent complete",44.935059,-95.19906
65539,Pivot Energy,69053,ILL060-Sangamon-Atchison,Map,Map,IL,Sangamon,MISO,IPP Non-CHP,IL60,,2,2,2,Solar Photovoltaic,SUN,PV,3,2026,"(V) Under construction, more than 50 percent complete",39.849909,-89.29994
67217,"ATLAS Solar II, LLC",69054,ATLAS II,Map,Map,AZ,La Paz,CISO,IPP Non-CHP,ALT2,,100,100,100,Solar Photovoltaic,SUN,PV,3,2026,"(V) Under construction, more than 50 percent complete",33.582903,-113.5769
15466,Public Service Co of Colorado,69100,Rocky Mountain Solar,Map,Map,CO,Pueblo,PSCO,Electric Utility,RKMB,,200,200,200,Batteries,MWH,BA,3,2026,"(U) Under construction, less than or equal to 50 percent complete",38.15319,-104.5763
67270,"RPCA Solar 10, LLC",69136,Redemeyer Road Solar,Map,Map,CA,Mendocino,CISO,IPP Non-CHP,REDBA,,4,4,4,Batteries,MWH,BA,3,2026,"(TS) Construction complete, but not yet in commercial operation",39.182276,-123.1906
67270,"RPCA Solar 10, LLC",69136,Redemeyer Road Solar,Map,Map,CA,Mendocino,CISO,IPP Non-CHP,REDPV,,4,4,4,Solar Photovoltaic,SUN,PV,3,2026,"(TS) Construction complete, but not yet in commercial operation",39.182276,-123.1906
67272,"RPCA Solar 8, LLC",69137,Althea Avenue Solar,Map,Map,CA,Fresno,CISO,IPP Non-CHP,ALP2,,3.9,3.9,3.9,Solar Photovoltaic,SUN,PV,3,2026,"(TS) Construction complete, but not yet in commercial operation",36.893121,-120.6569
67298,"Anson Solar Center 2, LLC",69149,Anson 2 Solar,Map,Map,TX,Jones,ERCO,IPP Non-CHP,ANSN2,,218.5,200,200,Solar Photovoltaic,SUN,PV,3,2026,"(V) Under construction, more than 50 percent complete",32.805609,-99.91901
67303,Wizard Energy Storage LLC,69152,Wizard Energy Storage,Map,Map,TX,Galveston,ERCO,IPP Non-CHP,WZRD,,150,150,150,Batteries,MWH,BA,3,2026,"(V) Under construction, more than 50 percent complete",29.499434,-95.08513
61194,Generate Capital,69202,KE109,Map,Map,IL,Kendall,PJM,IPP Non-CHP,11203,,3.5,3.5,3.5,Solar Photovoltaic,SUN,PV,3,2026,"(V) Under construction, more than 50 percent complete",41.64804,-88.58344
67358,RE Papago PV LLC,69256,Papago PV,Map,Map,AZ,Maricopa,AZPS,IPP Non-CHP,PPAPV,,150,150,150,Solar Photovoltaic,SUN,PV,3,2026,"(TS) Construction complete, but not yet in commercial operation",33.485,-113.042
67313,Ellomay USA Inc,69260,Mexia Solar Project,Map,Map,TX,Limestone,ERCO,IPP Non-CHP,MEXA1,,4,4,4,Solar Photovoltaic,SUN,PV,3,2026,"(V) Under construction, more than 50 percent complete",31.7056,-96.5189
67313,Ellomay USA Inc,69260,Mexia Solar Project,Map,Map,TX,Limestone,ERCO,IPP Non-CHP,MEXA2,,4,4,4,Solar Photovoltaic,SUN,PV,3,2026,"(V) Under construction, more than 50 percent complete",31.7056,-96.5189
56990,NJR Clean Energy Ventures Corporation,69282,Stafford Solar One,Map,Map,CT,Tolland,ISNE,IPP Non-CHP,STFRD,,4,4,4,Solar Photovoltaic,SUN,PV,3,2026,"(V) Under construction, more than 50 percent complete",41.95,-72.25
15466,Public Service Co of Colorado,69293,Waterton Solar I,Map,Map,CO,Douglas,PSCO,Electric Utility,WTS1,,4,4,4,Solar Photovoltaic,SUN,PV,3,2026,"(U) Under construction, less than or equal to 50 percent complete",39.5,-105.07
67414,Elm St Infra LLC,69322,Elm Street BESS,Map,Map,TX,Reeves,ERCO,IPP Non-CHP,ELMST,,9.9,9.9,9.9,Batteries,MWH,BA,3,2026,"(V) Under construction, more than 50 percent complete",31.427531,-103.4994
67415,Hwy 6 Infra LLC,69323,Highway 6 BESS,Map,Map,TX,Brazos,ERCO,IPP Non-CHP,HWY6,,9.9,9.9,9.9,Batteries,MWH,BA,3,2026,"(V) Under construction, more than 50 percent complete",30.442324,-96.13143
67399,Regis Gears Harris LLC,69336,Regis Gears Harris,Map,Map,TX,Harris,ERCO,IPP Non-CHP,GEARS,,9.9,9.9,9.9,Batteries,MWH,BA,3,2026,"(TS) Construction complete, but not yet in commercial operation",29.962405,-95.44201
67406,Regis Lyssy LLC,69339,Regis Lyssy,Map,Map,TX,Karnes,ERCO,IPP Non-CHP,LYSSY,,9.9,9.9,9.9,Batteries,MWH,BA,3,2026,"(TS) Construction complete, but not yet in commercial operation",28.894339,-98.12413
67458,Barrett Solar Project LLC (RE),69359,Barrett Solar Project,Map,Map,TX,Rains,ERCO,IPP Non-CHP,BARS1,,125,117,108,Solar Photovoltaic,SUN,PV,3,2026,"(TS) Construction complete, but not yet in commercial operation",32.951587,-95.90306
67459,Bynum Solar Project LLC (RE),69360,Bynum Solar Project,Map,Map,TX,Coryell,ERCO,IPP Non-CHP,BAYS1,,56,55,48,Solar Photovoltaic,SUN,PV,3,2026,"(V) Under construction, more than 50 percent complete",31.585103,-97.66466
67418,RP Minnesota Solar LLC,69370,RP Minnesota Solar,Map,Map,CA,Ventura,CISO,IPP Non-CHP,CONEJ,,1.8,1.8,1.8,Solar Photovoltaic,SUN,PV,3,2026,"(V) Under construction, more than 50 percent complete",34.20017,-118.9281
67413,County Rd Infra LLC,69422,County Road BESS,Map,Map,TX,Reeves,ERCO,IPP Non-CHP,CTRD,,9.9,9.9,9.9,Batteries,MWH,BA,3,2026,"(V) Under construction, more than 50 percent complete",31.40078,-103.4944
65869,Prologis Logistics Services Incorporated,69437,Lathrop 4 - SLCVA204,Map,Map,CA,San Joaquin,CISO,IPP Non-CHP,BA204,,2,2,2,Batteries,MWH,BA,3,2026,"(TS) Construction complete, but not yet in commercial operation",37.809438,-121.283
65869,Prologis Logistics Services Incorporated,69437,Lathrop 4 - SLCVA204,Map,Map,CA,San Joaquin,CISO,IPP Non-CHP,CV204,,1.4,1.4,1.4,Solar Photovoltaic,SUN,PV,3,2026,"(U) Under construction, less than or equal to 50 percent complete",37.809438,-121.283
64904,AES Clean Energy,69451,West Camp Wind Farm,Map,Map,AZ,Navajo,AZPS,IPP Non-CHP,WCAMP,,500,500,500,Onshore Wind Turbine,WND,WT,3,2026,"(V) Under construction, more than 50 percent complete",34.73569,-110.4249
20847,Wisconsin Electric Power Co,69504,"Strawberry Creek Solar WI, LLC",Map,Map,WI,Kenosha,MISO,Electric Utility,20258,,6,6,6,Solar Photovoltaic,SUN,PV,3,2026,"(TS) Construction complete, but not yet in commercial operation",42.58629,-88.01427
67504,"Marubeni Power International, Inc.",69510,Cotulla BESS 1,Map,Map,TX,La Salle,ERCO,IPP Non-CHP,COTUL,,9.9,9.9,9.9,Batteries,MWH,BA,3,2026,"(V) Under construction, more than 50 percent complete",28.442298,-99.25255
67504,"Marubeni Power International, Inc.",69511,Palmview BESS,Map,Map,TX,Hidalgo,ERCO,IPP Non-CHP,PALMV,,9.9,9.9,9.9,Batteries,MWH,BA,3,2026,"(V) Under construction, more than 50 percent complete",26.23833,-98.36946
67504,"Marubeni Power International, Inc.",69512,SE Edinburg BESS,Map,Map,TX,Hidalgo,ERCO,IPP Non-CHP,SEEDI,,9.9,9.9,9.9,Batteries,MWH,BA,3,2026,"(V) Under construction, more than 50 percent complete",26.288269,-98.14674
50123,"Leeward Asset Management, LLC",69538,Twelvemile Solar 2,Map,Map,OK,Mayes,SWPP,IPP Non-CHP,TS2,,52.2,52.2,52.2,Solar Photovoltaic,SUN,PV,3,2026,"(V) Under construction, more than 50 percent complete",36.331569,-95.22931
60531,Standard Solar,69554,BPL NJ - Belmont,Map,Map,NJ,Somerset,PJM,IPP Non-CHP,BELMO,,1.8,1.8,1.8,Solar Photovoltaic,SUN,PV,3,2026,"(TS) Construction complete, but not yet in commercial operation",40.530503,-74.54493
60531,Standard Solar,69555,Citrine NJ - West Pkwy,Map,Map,NJ,Morris,PJM,IPP Non-CHP,WESTP,,2.3,2.3,2.3,Solar Photovoltaic,SUN,PV,3,2026,"(TS) Construction complete, but not yet in commercial operation",40.980949,-74.30712
60531,Standard Solar,69561,Sunrise Solar Lincoln DE,Map,Map,DE,Sussex,PJM,IPP Non-CHP,LINCO,,4,4,4,Solar Photovoltaic,SUN,PV,3,2026,"(TS) Construction complete, but not yet in commercial operation",38.853476,-75.40124
67192,RWE Clean Energy,69578,"Casey Fork Solar, LLC",Map,Map,IL,Jefferson,MISO,IPP Non-CHP,CFSPV,,150,150,150,Solar Photovoltaic,SUN,PV,3,2026,"(TS) Construction complete, but not yet in commercial operation",38.452,-88.876
67530,"Heritage Energy Holdings, LLC",69580,Lone Wolfe Phase One,Map,Map,TX,Mitchell,ERCO,Commercial Non-CHP,LW1,,1.1,1.1,1.1,Solar Photovoltaic,SUN,PV,3,2026,"(V) Under construction, more than 50 percent complete",32.390278,-100.7243
60531,Standard Solar,69592,NL NY- Pulaski,Map,Map,NY,Orange,NYIS,IPP Non-CHP,PSKBS,,2.5,2.5,2.5,Batteries,MWH,BA,3,2026,"(TS) Construction complete, but not yet in commercial operation",41.334309,-74.40401
60531,Standard Solar,69592,NL NY- Pulaski,Map,Map,NY,Orange,NYIS,IPP Non-CHP,PSKPV,,2.5,2.5,2.5,Solar Photovoltaic,SUN,PV,3,2026,"(TS) Construction complete, but not yet in commercial operation",41.334309,-74.40401
65173,United States Solar Corporation,69610,USS Tall Grass Solar LLC,Map,Map,CO,Arapahoe,PSCO,IPP Non-CHP,USTGS,,5,5,5,Solar Photovoltaic,SUN,PV,3,2026,"(V) Under construction, more than 50 percent complete",39.665453,-104.7164
65173,United States Solar Corporation,69611,USS Calico Solar LLC,Map,Map,CO,Arapahoe,PSCO,IPP Non-CHP,USCA,,5,5,5,Solar Photovoltaic,SUN,PV,3,2026,"(V) Under construction, more than 50 percent complete",39.657753,-104.7163
65173,United States Solar Corporation,69612,USS Great Plains Solar LLC,Map,Map,CO,Arapahoe,PSCO,IPP Non-CHP,USGPL,,5,5,5,Solar Photovoltaic,SUN,PV,3,2026,"(V) Under construction, more than 50 percent complete",39.653269,-104.7254
65173,United States Solar Corporation,69614,USS High Plains Solar LLC,Map,Map,CO,Arapahoe,PSCO,IPP Non-CHP,USHPL,,5,5,5,Solar Photovoltaic,SUN,PV,3,2026,"(V) Under construction, more than 50 percent complete",39.653269,-104.7254
15466,Public Service Co of Colorado,69620,Waterton Solar II,Map,Map,CO,Arapahoe,PSCO,Electric Utility,WTS2,,4,4,4,Solar Photovoltaic,SUN,PV,3,2026,"(U) Under construction, less than or equal to 50 percent complete",39.5,-105.07
67549,38DN Asset Management LLC ,69625,Moore Rd,Map,Map,NY,Rensselaer,NYIS,IPP Non-CHP,MRPV,,4.8,4.8,4.8,Solar Photovoltaic,SUN,PV,3,2026,"(TS) Construction complete, but not yet in commercial operation",42.6125,-73.6536
7490,Grand River Dam Authority,165,GREC,Map,Map,OK,Mayes,SWPP,Electric Utility,4,,594,422,442,Natural Gas Fired Combustion Turbine,NG,GT,4,2026,"(V) Under construction, more than 50 percent complete",36.190278,-95.2894
34359,Curators of the University of Missouri,50969,MU Combined Heat and Power Plant,Map,Map,MO,Boone,MISO,Commercial CHP,GEN10,,9,8,8,Natural Gas Steam Turbine,NG,ST,4,2026,"(V) Under construction, more than 50 percent complete",38.9461,-92.3328
56128,SAS Institute Inc,56915,SAS Solar Farm,Map,Map,NC,Wake,CPLE,IPP Non-CHP,5,,1,1,1,Solar Photovoltaic,SUN,PV,4,2026,"(U) Under construction, less than or equal to 50 percent complete",35.8136,-78.7503
64266,"Blue Jay Solar I, LLC",64672,"Blue Jay Solar I, LLC",Map,Map,TX,Grimes,ERCO,IPP Non-CHP,BLUJS,,210,210,210,Solar Photovoltaic,SUN,PV,4,2026,"(TS) Construction complete, but not yet in commercial operation",30.705329,-96.06983
5248,Dominion Energy Inc.,65043,Dulles Solar and Storage,Map,Map,VA,Loudoun,PJM,Electric Utility,DUSO,,100,100,100,Solar Photovoltaic,SUN,PV,4,2026,"(V) Under construction, more than 50 percent complete",38.95,-77.5
56990,NJR Clean Energy Ventures Corporation,65139,Woodstock Solar One,Map,Map,CT,Windham,ISNE,IPP Non-CHP,VCP19,,3,3,3,Solar Photovoltaic,SUN,PV,4,2026,"(V) Under construction, more than 50 percent complete",41.923166,-71.9614
66007,"NY Pulteney I, LLC",65828,Chidsey Hill Road Solar,Map,Map,NY,Steuben,NYIS,IPP Non-CHP,1666,,3,3,3,Solar Photovoltaic,SUN,PV,4,2026,"(V) Under construction, more than 50 percent complete",42.573062,-77.16598
65076,"HEN Infrastructure, L.L.C.",65832,Olney,Map,Map,TX,Young,ERCO,IPP Non-CHP,OLNYD,,9.9,9.9,9.9,Petroleum Liquids,DFO,IC,4,2026,"(TS) Construction complete, but not yet in commercial operation",33.371086,-98.72047
6452,Florida Power & Light Co,65883,North Orange,Map,Map,FL,St Lucie,FPL,Electric Utility,1,,74.5,74.5,74.5,Solar Photovoltaic,SUN,PV,4,2026,"(V) Under construction, more than 50 percent complete",27.51422,-80.57074
65088,"Nighthawk Energy Storage, LLC",65889,"Nighthawk Energy Storage, LLC",Map,Map,CA,San Diego,CISO,IPP Non-CHP,BESS,,300,300,300,Batteries,MWH,BA,4,2026,"(V) Under construction, more than 50 percent complete",32.933958,-117.038
61012,AES Distributed Energy,66002,AES Mountain View Solar,Map,Map,HI,Honolulu,HECO,IPP Non-CHP,MVSBA,,7,7,7,Batteries,MWH,BA,4,2026,"(V) Under construction, more than 50 percent complete",21.45799,-158.1767
61012,AES Distributed Energy,66002,AES Mountain View Solar,Map,Map,HI,Honolulu,HECO,IPP Non-CHP,MVSPV,,7,7,7,Solar Photovoltaic,SUN,PV,4,2026,"(V) Under construction, more than 50 percent complete",21.45799,-158.1767
5248,Dominion Energy Inc.,66313,Moon Corner Solar,Map,Map,VA,Richmond,PJM,Electric Utility,MOCO,,60,60,60,Solar Photovoltaic,SUN,PV,4,2026,"(U) Under construction, less than or equal to 50 percent complete",37.89,-76.54
65777,Urban Grid Solar,66843,Morgnec Solar,Map,Map,MD,Kent,PJM,IPP Non-CHP,MORG1,,55.8,55.8,55.8,Solar Photovoltaic,SUN,PV,4,2026,"(U) Under construction, less than or equal to 50 percent complete",39.2299,-76.0525
65819,"Ables Springs Solar, LLC",66905,Ables Springs Solar & Storage,Map,Map,TX,Kaufman,ERCO,IPP Non-CHP,SOLAR,,151,151,151,Solar Photovoltaic,SUN,PV,4,2026,"(TS) Construction complete, but not yet in commercial operation",32.819566,-96.18484
65835,"Clean Energy Future - Trumbull, LLC.",66918,Trumbull Energy Center,Map,Map,OH,Trumbull,PJM,IPP Non-CHP,GT11,,308.7,275.6,308.7,Natural Gas Fired Combined Cycle,NG,CT,4,2026,"(V) Under construction, more than 50 percent complete",41.1476,-80.8525
65835,"Clean Energy Future - Trumbull, LLC.",66918,Trumbull Energy Center,Map,Map,OH,Trumbull,PJM,IPP Non-CHP,GT12,,308.7,275.6,308.7,Natural Gas Fired Combined Cycle,NG,CT,4,2026,"(V) Under construction, more than 50 percent complete",41.1476,-80.8525
65835,"Clean Energy Future - Trumbull, LLC.",66918,Trumbull Energy Center,Map,Map,OH,Trumbull,PJM,IPP Non-CHP,STG,,360,349.2,360,Natural Gas Fired Combined Cycle,NG,CA,4,2026,"(V) Under construction, more than 50 percent complete",41.1476,-80.8525
66002,"Pastoria Solar Energy Company, LLC",67105,Pastoria Solar,Map,Map,CA,Kern,CISO,IPP Non-CHP,CPP01,,105.2,105.2,105.2,Solar Photovoltaic,SUN,PV,4,2026,"(V) Under construction, more than 50 percent complete",34.955231,-118.8642
66107,"Carne Energy Storage, LLC",67230,"Carne Energy Storage, LLC",Map,Map,NM,Luna,EPE,IPP Non-CHP,CS,,130,130,130,Batteries,MWH,BA,4,2026,"(TS) Construction complete, but not yet in commercial operation",32.31478,-107.678
66319,"Heartwood Solar, LLC",67677,Heartwood Solar,Map,Map,MI,Hillsdale,MISO,IPP Non-CHP,HWS,,150,150,150,Solar Photovoltaic,SUN,PV,4,2026,"(V) Under construction, more than 50 percent complete",41.934092,-84.7343
66445,"NineDot Holdings, LLC",67885,"Nelson Clean Energy, LLC",Map,Map,NY,Richmond,NYIS,IPP Non-CHP,ND005,,3,3,3,Batteries,MWH,BA,4,2026,"(V) Under construction, more than 50 percent complete",40.543029,-74.14633
66445,"NineDot Holdings, LLC",67885,"Nelson Clean Energy, LLC",Map,Map,NY,Richmond,NYIS,IPP Non-CHP,ND006,,5,5,5,Batteries,MWH,BA,4,2026,"(V) Under construction, more than 50 percent complete",40.543029,-74.14633
66534,"Cooks Mill PV I, LLC",67991,Cooks Mill PV I,Map,Map,IL,Coles,MISO,IPP Non-CHP,CKML,,99,99,99,Solar Photovoltaic,SUN,PV,4,2026,"(V) Under construction, more than 50 percent complete",39.5208,-88.4201
66536,"Cherry Valley PV I, LLC",67992,Cherry Valley PV I,Map,Map,AR,Cross,MISO,IPP Non-CHP,CHVLY,,135,135,135,Solar Photovoltaic,SUN,PV,4,2026,"(V) Under construction, more than 50 percent complete",35.389,-90.75462
66538,"Crooked Creek PV I, LLC",67993,Crooked Creek PV I,Map,Map,IL,Marion,MISO,IPP Non-CHP,CRDCK,,99,99,99,Solar Photovoltaic,SUN,PV,4,2026,"(U) Under construction, less than or equal to 50 percent complete",38.6452,-88.9998
50123,"Leeward Asset Management, LLC",68009,Saltbranch 2,Map,Map,OK,Mayes,SWPP,IPP Non-CHP,SB12,,73,73,73,Solar Photovoltaic,SUN,PV,4,2026,"(U) Under construction, less than or equal to 50 percent complete",36.331569,-95.22931
60059,ZGlobal Inc,68018,Merced BESS,Map,Map,CA,Merced,CISO,IPP Non-CHP,MRCDB,,3,3,3,Batteries,MWH,BA,4,2026,"(TS) Construction complete, but not yet in commercial operation",36.989396,-120.8775
67508,"Elevate Renewables, LLC",68055,Prospect Power BESS,Map,Map,VA,Rockingham,PJM,IPP Non-CHP,PPB,,150,150,150,Batteries,MWH,BA,4,2026,"(V) Under construction, more than 50 percent complete",38.616069,-78.68635
58468,Dominion Renewable Energy,68074,Cerulean Solar,Map,Map,VA,Richmond,PJM,Electric Utility,CERUL,,62,62,62,Solar Photovoltaic,SUN,PV,4,2026,"(V) Under construction, more than 50 percent complete",37.867194,-76.58987
65869,Prologis Logistics Services Incorporated,68139,McCook 2-SLCHI102,Map,Map,IL,Cook,PJM,IPP Non-CHP,CH102,,2,2,2,Solar Photovoltaic,SUN,PV,4,2026,"(V) Under construction, more than 50 percent complete",41.803083,-87.81935
65869,Prologis Logistics Services Incorporated,68140,Melrose Park 2-SLCHI547,Map,Map,IL,Cook,PJM,IPP Non-CHP,CH547,,3,3,3,Solar Photovoltaic,SUN,PV,4,2026,"(U) Under construction, less than or equal to 50 percent complete",41.9809,-87.8633
65869,Prologis Logistics Services Incorporated,68141,Northlake 2-SLCHI302,Map,Map,IL,Cook,PJM,IPP Non-CHP,CH302,,1.6,1.6,1.6,Solar Photovoltaic,SUN,PV,4,2026,"(U) Under construction, less than or equal to 50 percent complete",41.9118,-87.9081
65869,Prologis Logistics Services Incorporated,68142,Northlake 3-SLCHI303,Map,Map,IL,Cook,PJM,IPP Non-CHP,CH303,,1.6,1.6,1.6,Solar Photovoltaic,SUN,PV,4,2026,"(U) Under construction, less than or equal to 50 percent complete",41.918532,-87.9093
65869,Prologis Logistics Services Incorporated,68144,Northlake 5-SLCHI305,Map,Map,IL,Cook,PJM,IPP Non-CHP,CH305,,2.5,2.5,2.5,Solar Photovoltaic,SUN,PV,4,2026,"(V) Under construction, more than 50 percent complete",41.929004,-87.91716
66642,City of Little Rock - (AR),68208,City of Little Rock Solar Array,Map,Map,AR,Pulaski,MISO,Electric Utility,LRZBR,,4.9,4.9,3.7,Solar Photovoltaic,SUN,PV,4,2026,"(U) Under construction, less than or equal to 50 percent complete",34.69761,-92.21437
59300,PNM Resources,68210,Sandia Energy Center,Map,Map,NM,Bernalillo,PNM,Electric Utility,BESS,,60,60,60,Batteries,MWH,BA,4,2026,"(TS) Construction complete, but not yet in commercial operation",35.0571,-106.5277
65869,Prologis Logistics Services Incorporated,68235,Romeoville 34B-SLCHI234,Map,Map,IL,Will,PJM,IPP Non-CHP,C34BB,,0.5,0.5,0.5,Batteries,MWH,BA,4,2026,"(U) Under construction, less than or equal to 50 percent complete",41.597,-88.11
66662,"SR Gray, LLC",68248,SR Gray,Map,Map,TN,Washington,TVA,IPP Non-CHP,GRAY,,6,6,6,Solar Photovoltaic,SUN,PV,4,2026,"(U) Under construction, less than or equal to 50 percent complete",36.439504,-82.47351
20421,Western Minnesota Mun Pwr Agny,68277,Brookings Solar,Map,Map,SD,Brookings,SWPP,Electric Utility,1,,4.9,4.9,4.9,Solar Photovoltaic,SUN,PV,4,2026,"(U) Under construction, less than or equal to 50 percent complete",44.340596,-96.72945
66726,Nimbus Wind Farm LLC,68319,Nimbus Wind Farm,Map,Map,AR,Carroll,MISO,IPP Non-CHP,NIM,,183,183,183,Onshore Wind Turbine,WND,WT,4,2026,"(V) Under construction, more than 50 percent complete",36.27118,-93.40682
66800,"NorCal FPV 1, LLC",68439,NorCal FPV 1,Map,Map,CA,Alameda,CISO,Industrial Non-CHP,17184,,10,10,7,Solar Photovoltaic,SUN,PV,4,2026,"(V) Under construction, more than 50 percent complete",37.6778,-121.8275
66844,Pediment BESS I LLC,68477,Pediment BESS I,Map,Map,AZ,Maricopa,SRP,IPP Non-CHP,1,,250,250,250,Batteries,MWH,BA,4,2026,"(TS) Construction complete, but not yet in commercial operation",33.355662,-111.6021
60059,ZGlobal Inc,68518,Merced 2 BESS,Map,Map,CA,Merced,CISO,IPP Non-CHP,MRC2B,,2,2,2,Batteries,MWH,BA,4,2026,"(TS) Construction complete, but not yet in commercial operation",37.000929,-120.6648
60520,SoCore Energy LLC,68597,Mingoville PV I,Map,Map,PA,Centre,PJM,IPP Non-CHP,PV1,,3,3,3,Solar Photovoltaic,SUN,PV,4,2026,"(U) Under construction, less than or equal to 50 percent complete",40.902,-77.685
60520,SoCore Energy LLC,68598,Mingoville PV II,Map,Map,PA,Centre,PJM,IPP Non-CHP,PV1,,2,2,2,Solar Photovoltaic,SUN,PV,4,2026,"(U) Under construction, less than or equal to 50 percent complete",40.902,-77.685
67082,"Headwater Energy, LLC",68753,Flying Goose,Map,Map,CA,Kern,CISO,IPP Non-CHP,FLYGS,,3,3,3,Solar Photovoltaic,SUN,PV,4,2026,"(V) Under construction, more than 50 percent complete",35.6,-119.5824
67064,"Catalyze Chicago S Western Avenue 2 Microgrid, LLC",68778,IL Chicago 2635 S Western Ave. (West),Map,Map,IL,Cook,PJM,Electric Utility,20421,,1.8,1.8,1.8,Solar Photovoltaic,SUN,PV,4,2026,"(V) Under construction, more than 50 percent complete",41.844094,-87.68325
66800,"NorCal FPV 1, LLC",68787,NorCal FPV 1 (Pond 2),Map,Map,CA,Alameda,CISO,IPP Non-CHP,23889,,1.8,1.8,1.3,Solar Photovoltaic,SUN,PV,4,2026,"(V) Under construction, more than 50 percent complete",37.6779,-121.8276
65869,Prologis Logistics Services Incorporated,68788,JFC Slauson - SLLAX071,Map,Map,CA,Los Angeles,CISO,IPP Non-CHP,LA071,,1.2,1.2,1.2,Solar Photovoltaic,SUN,PV,4,2026,"(U) Under construction, less than or equal to 50 percent complete",33.981421,-118.1361
65869,Prologis Logistics Services Incorporated,68789,South Bay Dis Ctr 12 - SLLAX104,Map,Map,CA,Los Angeles,CISO,IPP Non-CHP,LA104,,1.2,1.2,1.2,Solar Photovoltaic,SUN,PV,4,2026,"(U) Under construction, less than or equal to 50 percent complete",33.842873,-118.2245
65869,Prologis Logistics Services Incorporated,68793,Bandini - SLLAX710,Map,Map,CA,Los Angeles,CISO,IPP Non-CHP,LA710,,1.3,1.3,1.3,Solar Photovoltaic,SUN,PV,4,2026,"(U) Under construction, less than or equal to 50 percent complete",33.983566,-118.1348
6452,Florida Power & Light Co,68818,Sand Pine,Map,Map,FL,Calhoun,FPL,Electric Utility,1,,74.5,74.5,74.5,Solar Photovoltaic,SUN,PV,4,2026,"(V) Under construction, more than 50 percent complete",30.44763,-85.26373
6452,Florida Power & Light Co,68819,Sea Grape,Map,Map,FL,St Lucie,FPL,Electric Utility,1,,74.5,74.5,74.5,Solar Photovoltaic,SUN,PV,4,2026,"(V) Under construction, more than 50 percent complete",27.452435,-80.56397
6452,Florida Power & Light Co,68821,Clover FL,Map,Map,FL,St Lucie,FPL,Electric Utility,1,,74.5,74.5,74.5,Solar Photovoltaic,SUN,PV,4,2026,"(V) Under construction, more than 50 percent complete",27.472021,-80.51902
24211,Tucson Electric Power Co,68937,Roadrunner Reserve Phase 2,Map,Map,AZ,,TEPC,Electric Utility,RDR2,,200,200,200,Batteries,MWH,BA,4,2026,"(U) Under construction, less than or equal to 50 percent complete",32.073,-100.821
67196,"Gonzaga Ridge Battery Facility, LLC",68980,Gonzaga Ridge Battery Facility,Map,Map,CA,Merced,CISO,IPP Non-CHP,GRBF,,51.8,51.8,51.8,Batteries,MWH,BA,4,2026,"(V) Under construction, more than 50 percent complete",37.065806,-121.1929
67197,"Gonzaga Ridge Wind Farm, LLC",68981,Gonzaga Ridge Wind Farm,Map,Map,CA,Merced,CISO,IPP Non-CHP,GRWF1,,40.3,40.3,40.3,Onshore Wind Turbine,WND,WT,4,2026,"(V) Under construction, more than 50 percent complete",37.065806,-121.1294
67197,"Gonzaga Ridge Wind Farm, LLC",68981,Gonzaga Ridge Wind Farm,Map,Map,CA,Merced,CISO,IPP Non-CHP,GRWF2,,34.6,34.6,34.6,Onshore Wind Turbine,WND,WT,4,2026,"(V) Under construction, more than 50 percent complete",37.065806,-121.1294
67197,"Gonzaga Ridge Wind Farm, LLC",68981,Gonzaga Ridge Wind Farm,Map,Map,CA,Merced,CISO,IPP Non-CHP,GRWF3,,57.9,57.9,57.9,Onshore Wind Turbine,WND,WT,4,2026,"(V) Under construction, more than 50 percent complete",37.065806,-121.1294
67192,RWE Clean Energy,69027,"Stoneridge Solar, LLC",Map,Map,TX,Milam,ERCO,IPP Non-CHP,SSBA,,100,100,100,Batteries,MWH,BA,4,2026,"(TS) Construction complete, but not yet in commercial operation",30.569447,-97.11043
65539,Pivot Energy,69035,Pivot Solar 36,Map,Map,CO,Weld,WACM,IPP Non-CHP,PI36,,5,5,5,Solar Photovoltaic,SUN,PV,4,2026,"(V) Under construction, more than 50 percent complete",40.346119,-104.7314
65539,Pivot Energy,69052,MDD109-NCBP BLDG 11-Manekin,Map,Map,MD,Prince Georges,PJM,IPP Non-CHP,MD11,,2.4,2.4,2.4,Solar Photovoltaic,SUN,PV,4,2026,"(V) Under construction, more than 50 percent complete",38.8739,-76.7342
65539,Pivot Energy,69064,"NCBP TWELVE, LLC",Map,Map,MD,Prince Georges,PJM,IPP Non-CHP,NC12,,1.2,1.2,1.2,Solar Photovoltaic,SUN,PV,4,2026,"(V) Under construction, more than 50 percent complete",38.8713,-76.7339
67294,"Deer Creek Solar I, LLC",69121,Deer Creek Hybrid,Map,Map,CA,Tulare,CISO,IPP Non-CHP,DERBA,,51.4,50,50,Batteries,MWH,BA,4,2026,"(U) Under construction, less than or equal to 50 percent complete",35.965,-119.07
67294,"Deer Creek Solar I, LLC",69121,Deer Creek Hybrid,Map,Map,CA,Tulare,CISO,IPP Non-CHP,DERPV,,51.4,50,50,Solar Photovoltaic,SUN,PV,4,2026,"(U) Under construction, less than or equal to 50 percent complete",35.965,-119.07
67304,"BT Cantwell Solar, LLC",69151,Arroyo Storage,Map,Map,TX,Cameron,ERCO,IPP Non-CHP,ARY_B,,180,180,180,Batteries,MWH,BA,4,2026,"(TS) Construction complete, but not yet in commercial operation",26.264311,-97.61156
67286,SV CSG Paloma Solar LLC,69157,SV CSG Paloma Solar,Map,Map,IL,Bureau,PJM,IPP Non-CHP,PALOM,,4.4,4.4,4.4,Solar Photovoltaic,SUN,PV,4,2026,"(V) Under construction, more than 50 percent complete",41.581609,-89.44544
67335,"ATLAS Solar Manager, LLC",69237,"ATLAS Solar V, LLC",Map,Map,AZ,La Paz,CISO,IPP Non-CHP,ATL5,,200,200,200,Solar Photovoltaic,SUN,PV,4,2026,"(TS) Construction complete, but not yet in commercial operation",33.573225,-113.5773
67347,Harlingen ESS Assets LLC,69252,Harlingen #1 BESS 1,Map,Map,TX,Cameron,ERCO,IPP Non-CHP,HABA1,,10,10,10,Batteries,MWH,BA,4,2026,"(V) Under construction, more than 50 percent complete",26.206111,-97.70842
67348,Edinburg ESS Assets LLC,69253,North Edinburg BESS 1,Map,Map,TX,Hidalgo,ERCO,IPP Non-CHP,NEBA1,,10,10,10,Batteries,MWH,BA,4,2026,"(V) Under construction, more than 50 percent complete",26.347194,-98.18844
67351,"Wilmot Energy Center II, LLC",69254,Wilmot Energy Center II,Map,Map,AZ,Pima,TEPC,IPP Non-CHP,WIL2B,,100,100,100,Batteries,MWH,BA,4,2026,"(V) Under construction, more than 50 percent complete",31.592478,-110.5014
67351,"Wilmot Energy Center II, LLC",69254,Wilmot Energy Center II,Map,Map,AZ,Pima,TEPC,IPP Non-CHP,WIL2S,,100,100,100,Solar Photovoltaic,SUN,PV,4,2026,"(V) Under construction, more than 50 percent complete",31.592478,-110.5014
17718,Southwestern Public Service Co,69258,Cunningham Solar I & BESS,Map,Map,NM,Lea,SWPP,Electric Utility,CHCB,,36,36,36,Batteries,MWH,BA,4,2026,"(U) Under construction, less than or equal to 50 percent complete",32.784586,-103.3374
17718,Southwestern Public Service Co,69258,Cunningham Solar I & BESS,Map,Map,NM,Lea,SWPP,Electric Utility,CHCS1,,72,72,72,Solar Photovoltaic,SUN,PV,4,2026,"(U) Under construction, less than or equal to 50 percent complete",32.784586,-103.3374
56990,NJR Clean Energy Ventures Corporation,69259,Changewater 1,Map,Map,NJ,Warren,PJM,IPP Non-CHP,CGWTR,,11,11,11,Solar Photovoltaic,SUN,PV,4,2026,"(V) Under construction, more than 50 percent complete",40.73639,-74.95056
67356,"RPC Merchant, LLC",69267,Cedarvale Gas,Map,Map,TX,Ward,ERCO,IPP Non-CHP,CDRV1,,2.5,2.5,2.5,Natural Gas Internal Combustion Engine,NG,IC,4,2026,"(TS) Construction complete, but not yet in commercial operation",31.515353,-103.4507
67356,"RPC Merchant, LLC",69267,Cedarvale Gas,Map,Map,TX,Ward,ERCO,IPP Non-CHP,CDRV2,,2.5,2.5,2.5,Natural Gas Internal Combustion Engine,NG,IC,4,2026,"(TS) Construction complete, but not yet in commercial operation",31.515353,-103.4507
67356,"RPC Merchant, LLC",69267,Cedarvale Gas,Map,Map,TX,Ward,ERCO,IPP Non-CHP,CDRV3,,2.5,2.5,2.5,Natural Gas Internal Combustion Engine,NG,IC,4,2026,"(TS) Construction complete, but not yet in commercial operation",31.515353,-103.4507
67356,"RPC Merchant, LLC",69267,Cedarvale Gas,Map,Map,TX,Ward,ERCO,IPP Non-CHP,CDRV4,,2.5,2.5,2.5,Natural Gas Internal Combustion Engine,NG,IC,4,2026,"(TS) Construction complete, but not yet in commercial operation",31.515353,-103.4507
67345,"Esmen Solar 1, LLC",69308,NL IL - Esmen East,Map,Map,IL,Livingston,MISO,IPP Non-CHP,ESMNE,,5,5,5,Solar Photovoltaic,SUN,PV,4,2026,"(TS) Construction complete, but not yet in commercial operation",40.94792,-88.66554
67416,Buda Infra LLC,69324,Buda BESS,Map,Map,TX,Hays,ERCO,IPP Non-CHP,BUDA,,9.9,9.9,9.9,Batteries,MWH,BA,4,2026,"(U) Under construction, less than or equal to 50 percent complete",30.075567,-97.85101
67403,Regis Hidden Valley LLC,69335,Regis Hidden Valley,Map,Map,TX,Harris,ERCO,IPP Non-CHP,HIDD,,9.9,9.9,9.9,Batteries,MWH,BA,4,2026,"(TS) Construction complete, but not yet in commercial operation",29.909626,-95.42364
67460,Distributed Generation Solutions LLC,69361,DGS Five Points,Map,Map,TX,Taylor,ERCO,IPP Non-CHP,FPBAT,,9.9,9.9,9.9,Batteries,MWH,BA,4,2026,"(TS) Construction complete, but not yet in commercial operation",32.46489,-99.8126
67461,DGSP2 LLC,69362,Plaza Street,Map,Map,TX,Taylor,ERCO,IPP Non-CHP,PSBAT,,9.9,9.9,9.9,Batteries,MWH,BA,4,2026,"(TS) Construction complete, but not yet in commercial operation",32.45759,-99.78933
67419,Middle Road Solar Partners LLC,69371,Middle Road Solar Partners,Map,Map,PA,Dauphin,PJM,IPP Non-CHP,HALIF,,2.5,2.5,2.5,Solar Photovoltaic,SUN,PV,4,2026,"(V) Under construction, more than 50 percent complete",40.516,-76.937
67465,"Redfield PV I, LLC",69394,Redfield Solar,Map,Map,AR,Grant,MISO,IPP Non-CHP,REDF1,,100,100,100,Solar Photovoltaic,SUN,PV,4,2026,"(V) Under construction, more than 50 percent complete",34.2711,-92.23215
17718,Southwestern Public Service Co,69435,Plant X Solar,Map,Map,TX,Lamb,SWPP,Electric Utility,PLXS,,150,150,150,Solar Photovoltaic,SUN,PV,4,2026,"(V) Under construction, more than 50 percent complete",34.165603,-102.4053
65715,Strata Clean Energy,69469,Justice Energy Storage,Map,Map,AZ,Maricopa,AZPS,IPP Non-CHP,JES1,,150,150,150,Batteries,MWH,BA,4,2026,"(V) Under construction, more than 50 percent complete",33.407967,-112.4956
49893,Invenergy Services LLC,69475,Split Rail Solar Energy LLC,Map,Map,MO,Warren,MISO,IPP Non-CHP,SPTRL,,300,300,300,Solar Photovoltaic,SUN,PV,4,2026,"(V) Under construction, more than 50 percent complete",38.901147,-91.20864
61029,Upper Michigan Energy Resources Company,69476,Renegade Solar Energy LLC,Map,Map,MI,Delta,MISO,IPP Non-CHP,RNGDE,,100,100,100,Solar Photovoltaic,SUN,PV,4,2026,"(U) Under construction, less than or equal to 50 percent complete",45.99731,-87.22625
67503,Archtop Property Management LLC,69521,Archtop Solar,Map,Map,IL,Ford,MISO,IPP Non-CHP,ARCH2,,53.3,53.3,53.3,Solar Photovoltaic,SUN,PV,4,2026,"(V) Under construction, more than 50 percent complete",40.469348,-88.40313
67503,Archtop Property Management LLC,69521,Archtop Solar,Map,Map,IL,Ford,MISO,IPP Non-CHP,ARCH3,,36.9,36.9,36.9,Solar Photovoltaic,SUN,PV,4,2026,"(V) Under construction, more than 50 percent complete",40.469348,-88.40313
67503,Archtop Property Management LLC,69521,Archtop Solar,Map,Map,IL,Ford,MISO,IPP Non-CHP,ARCH4,,24.6,24.6,24.6,Solar Photovoltaic,SUN,PV,4,2026,"(V) Under construction, more than 50 percent complete",40.469348,-88.40313
67522,Holyoke MA BESS 1 LLC,69551,Holyoke MA BESS 1,Map,Map,MA,Hampden,ISNE,IPP Non-CHP,90915,,5,5,5,Batteries,MWH,BA,4,2026,"(U) Under construction, less than or equal to 50 percent complete",42.16774,-72.64898
67523,Danville VA BESS 2 LLC,69552,Danville VA BESS 2,Map,Map,VA,Pittsylvania,PJM,IPP Non-CHP,90916,,11,11,11,Batteries,MWH,BA,4,2026,"(U) Under construction, less than or equal to 50 percent complete",36.6052,-79.4358
60531,Standard Solar,69556,Pluma - Clovis Concrete North,Map,Map,NM,Curry,SWPP,IPP Non-CHP,CLOCN,,3.4,3.4,3.4,Solar Photovoltaic,SUN,PV,4,2026,"(TS) Construction complete, but not yet in commercial operation",34.363937,-103.1968
67543,Essex VT BESS 1 LLC,69602,Essex VT BESS 1,Map,Map,VT,Chittenden,ISNE,IPP Non-CHP,90918,,16,16,16,Batteries,MWH,BA,4,2026,"(U) Under construction, less than or equal to 50 percent complete",44.483701,-73.10717
67542,Ipswich MA BESS 1 LLC,69603,Ipswich MA BESS 1,Map,Map,MA,Essex,ISNE,IPP Non-CHP,90917,,5,5,5,Batteries,MWH,BA,4,2026,"(U) Under construction, less than or equal to 50 percent complete",42.716353,-70.84202
6775,Village of Freeport - (NY),2678,Plant No 1 Freeport,Map,Map,NY,Nassau,NYIS,Electric Utility,ENG13,,3,3,3,Landfill Gas,LFG,IC,5,2026,"(U) Under construction, less than or equal to 50 percent complete",40.6561,-73.5922
49893,Invenergy Services LLC,63026,Yum Yum Solar LLC,Map,Map,TN,Fayette,TVA,IPP Non-CHP,GEN1,,147,147,147,Solar Photovoltaic,SUN,PV,5,2026,"(V) Under construction, more than 50 percent complete",35.252463,-89.25136
63331,"Organic Energy Solutions, Inc.",63622,OES Biogas Power,Map,Map,CA,San Bernardino,CISO,IPP CHP,OES01,,1.3,1.3,1.3,Other Waste Biomass,OBG,IC,5,2026,"(TS) Construction complete, but not yet in commercial operation",34.17325,-117.3464
63331,"Organic Energy Solutions, Inc.",63622,OES Biogas Power,Map,Map,CA,San Bernardino,CISO,IPP CHP,OES02,,1.3,1.3,1.3,Other Waste Biomass,OBG,IC,5,2026,"(TS) Construction complete, but not yet in commercial operation",34.17325,-117.3464
65043,Madison Energy Investments LLC,63677,Sturbridge Road Solar,Map,Map,MA,Worcester,ISNE,IPP Non-CHP,STURB,,5,5,5,Solar Photovoltaic,SUN,PV,5,2026,"(TS) Construction complete, but not yet in commercial operation",42.174611,-72.01786
56201,Engie North America,65870,Castor,Map,Map,TX,Brazoria,ERCO,IPP Non-CHP,CASTR,,200,200,200,Batteries,MWH,BA,5,2026,"(U) Under construction, less than or equal to 50 percent complete",29.150279,-95.65118
56201,Engie North America,65876,Desna,Map,Map,TX,Brazoria,ERCO,IPP Non-CHP,DESNA,,200,200,200,Batteries,MWH,BA,5,2026,"(U) Under construction, less than or equal to 50 percent complete",29.063305,-95.73543
61012,AES Distributed Energy,66066,AES Waiawa Phase 2 Solar,Map,Map,HI,Honolulu,HECO,IPP Non-CHP,WAIBA,,30,30,30,Batteries,MWH,BA,5,2026,"(V) Under construction, more than 50 percent complete",21.43026,-157.9779
61012,AES Distributed Energy,66066,AES Waiawa Phase 2 Solar,Map,Map,HI,Honolulu,HECO,IPP Non-CHP,WAIPV,,30,30,30,Solar Photovoltaic,SUN,PV,5,2026,"(V) Under construction, more than 50 percent complete",21.43026,-157.9779
65308,Cattlemen Solar Park LLC,66168,Cattlemen Solar Park,Map,Map,TX,Milam,ERCO,IPP Non-CHP,GEN01,,240,240,240,Solar Photovoltaic,SUN,PV,5,2026,"(TS) Construction complete, but not yet in commercial operation",31.045676,-96.85863
11269,Lower Colorado River Authority,66335,Timmerman Power Plant,Map,Map,TX,Caldwell,ERCO,Electric Utility,G11,AGR5,18.8,18.6,18.6,Natural Gas Internal Combustion Engine,NG,IC,5,2026,"(V) Under construction, more than 50 percent complete",29.875,-97.807
11269,Lower Colorado River Authority,66335,Timmerman Power Plant,Map,Map,TX,Caldwell,ERCO,Electric Utility,G12,AGR5,18.8,18.6,18.6,Natural Gas Internal Combustion Engine,NG,IC,5,2026,"(V) Under construction, more than 50 percent complete",29.875,-97.807
11269,Lower Colorado River Authority,66335,Timmerman Power Plant,Map,Map,TX,Caldwell,ERCO,Electric Utility,G13,AGR6,18.8,18.6,18.6,Natural Gas Internal Combustion Engine,NG,IC,5,2026,"(V) Under construction, more than 50 percent complete",29.875,-97.807
11269,Lower Colorado River Authority,66335,Timmerman Power Plant,Map,Map,TX,Caldwell,ERCO,Electric Utility,G14,AGR6,18.8,18.6,18.6,Natural Gas Internal Combustion Engine,NG,IC,5,2026,"(V) Under construction, more than 50 percent complete",29.875,-97.807
11269,Lower Colorado River Authority,66335,Timmerman Power Plant,Map,Map,TX,Caldwell,ERCO,Electric Utility,G15,AGR6,18.8,18.6,18.6,Natural Gas Internal Combustion Engine,NG,IC,5,2026,"(V) Under construction, more than 50 percent complete",29.875,-97.807
11269,Lower Colorado River Authority,66335,Timmerman Power Plant,Map,Map,TX,Caldwell,ERCO,Electric Utility,G16,AGR7,18.8,18.6,18.6,Natural Gas Internal Combustion Engine,NG,IC,5,2026,"(V) Under construction, more than 50 percent complete",29.875,-97.807
11269,Lower Colorado River Authority,66335,Timmerman Power Plant,Map,Map,TX,Caldwell,ERCO,Electric Utility,G17,AGR7,18.8,18.6,18.6,Natural Gas Internal Combustion Engine,NG,IC,5,2026,"(V) Under construction, more than 50 percent complete",29.875,-97.807
11269,Lower Colorado River Authority,66335,Timmerman Power Plant,Map,Map,TX,Caldwell,ERCO,Electric Utility,G18,AGR8,18.8,18.6,18.6,Natural Gas Internal Combustion Engine,NG,IC,5,2026,"(V) Under construction, more than 50 percent complete",29.875,-97.807
11269,Lower Colorado River Authority,66335,Timmerman Power Plant,Map,Map,TX,Caldwell,ERCO,Electric Utility,G19,AGR8,18.8,18.6,18.6,Natural Gas Internal Combustion Engine,NG,IC,5,2026,"(V) Under construction, more than 50 percent complete",29.875,-97.807
11269,Lower Colorado River Authority,66335,Timmerman Power Plant,Map,Map,TX,Caldwell,ERCO,Electric Utility,G20,AGR8,18.8,18.6,18.6,Natural Gas Internal Combustion Engine,NG,IC,5,2026,"(V) Under construction, more than 50 percent complete",29.875,-97.807
61978,Convergent Energy and Power LP,66497,Bensonhurst Energy Storage 1 LLC,Map,Map,NY,Kings,ISNE,IPP Non-CHP,BHBA1,,5,5,5,Batteries,MWH,BA,5,2026,"(U) Under construction, less than or equal to 50 percent complete",40.636787,-73.93435
65564,"Catalyze Dallas 7750 Dynasty Drive Microgrid, LLC",66516,TX Dallas 7750 Dynasty Drive,Map,Map,TX,Dallas,ERCO,IPP Non-CHP,19500,,2.3,2.3,2.3,Solar Photovoltaic,SUN,PV,5,2026,"(TS) Construction complete, but not yet in commercial operation",32.652269,-96.75577
67192,RWE Clean Energy,66687,"Graceland Solar, LLC",Map,Map,TN,Shelby,TVA,IPP Non-CHP,GRA1,,150,150,150,Solar Photovoltaic,SUN,PV,5,2026,"(V) Under construction, more than 50 percent complete",35.309415,-89.86646
64872,"Distributed Solar Development, LLC",66830,Harrah's Atlantic City - POI 1 (Meeting,Map,Map,NJ,Atlantic,PJM,IPP Non-CHP,P5376,,2.3,2.3,2.3,Solar Photovoltaic,SUN,PV,5,2026,"(U) Under construction, less than or equal to 50 percent complete",39.384389,-74.42627
66180,"CPV Rogue's Wind, LLC",67348,"CPV Rogue's Wind, LLC",Map,Map,PA,Cambria,PJM,IPP Non-CHP,ROGUE,,114,109.9,109.9,Onshore Wind Turbine,WND,WT,5,2026,"(V) Under construction, more than 50 percent complete",40.698125,-78.66329
66232,"Green River Energy Center, LLC",67501,Green River Energy Center - Hybrid,Map,Map,UT,Emery,PACE,IPP Non-CHP,GRBS,,400,400,400,Batteries,MWH,BA,5,2026,"(V) Under construction, more than 50 percent complete",38.9987,-111.1172
66232,"Green River Energy Center, LLC",67501,Green River Energy Center - Hybrid,Map,Map,UT,Emery,PACE,IPP Non-CHP,GRPV,,400,400,400,Solar Photovoltaic,SUN,PV,5,2026,"(V) Under construction, more than 50 percent complete",38.9987,-111.1172
61060,Cypress Creek Renewables,67654,Destiny Storage,Map,Map,TX,Harris,ERCO,IPP Non-CHP,DESTS,,200,200,200,Batteries,MWH,BA,5,2026,"(U) Under construction, less than or equal to 50 percent complete",29.887194,-95.02366
5109,DTE Electric Company,67754,Fish Creek Solar Park,Map,Map,MI,Montcalm,MISO,Electric Utility,FSCSP,,146.2,146.2,146.2,Solar Photovoltaic,SUN,PV,5,2026,"(TS) Construction complete, but not yet in commercial operation",43.12165,-85.01172
66524,Cattlemen Solar Park II LLC,67976,Cattlemen Solar II,Map,Map,TX,Milam,ERCO,IPP Non-CHP,GEN01,,200,200,200,Solar Photovoltaic,SUN,PV,5,2026,"(TS) Construction complete, but not yet in commercial operation",31.083559,-96.85732
65869,Prologis Logistics Services Incorporated,68126,Bensenville Ind Park 2-SLCHI402,Map,Map,IL,DuPage,PJM,IPP Non-CHP,CH402,,1.1,1.1,1.1,Solar Photovoltaic,SUN,PV,5,2026,"(U) Under construction, less than or equal to 50 percent complete",41.983957,-87.95383
65869,Prologis Logistics Services Incorporated,68127,Bensenville Ind Park 4-SLCHI424,Map,Map,IL,Cook,PJM,IPP Non-CHP,CH424,,1.7,1.7,1.7,Solar Photovoltaic,SUN,PV,5,2026,"(V) Under construction, more than 50 percent complete",41.983893,-87.95172
66699,"SR Millington II, LLC",68326,SR Millington II,Map,Map,TN,Shelby,TVA,IPP Non-CHP,MILL2,,74.9,74.9,74.9,Solar Photovoltaic,SUN,PV,5,2026,"(V) Under construction, more than 50 percent complete",35.358278,-89.84577
64904,AES Clean Energy,68388,AES Rt 5 Solar CSG,Map,Map,NY,Genesee,NYIS,IPP Non-CHP,RT5SS,,5,4.9,1,Solar Photovoltaic,SUN,PV,5,2026,"(V) Under construction, more than 50 percent complete",42.97347,-78.01527
64904,AES Clean Energy,68389,AES Glengarry Farms Solar CSG,Map,Map,NY,Franklin,NYIS,IPP Non-CHP,GLENG,,5,4.9,1,Solar Photovoltaic,SUN,PV,5,2026,"(V) Under construction, more than 50 percent complete",44.9183,-74.1477
66784,"311SV 8me, LLC",68414,Catclaw Solar,Map,Map,AZ,Maricopa,AZPS,IPP Non-CHP,CC8,,200,200,200,Solar Photovoltaic,SUN,PV,5,2026,"(V) Under construction, more than 50 percent complete",33.580629,-112.6867
66784,"311SV 8me, LLC",68414,Catclaw Solar,Map,Map,AZ,Maricopa,AZPS,IPP Non-CHP,SV,,250,250,250,Batteries,MWH,BA,5,2026,"(U) Under construction, less than or equal to 50 percent complete",33.580629,-112.6867
66852,"PVS 2, LLC",68487,Pleasant Valley Solar 2 Project,Map,Map,ID,Ada,IPCO,IPP Non-CHP,PVS2,,125,125,125,Solar Photovoltaic,SUN,PV,5,2026,"(U) Under construction, less than or equal to 50 percent complete",43.327775,-115.9882
20856,Wisconsin Power & Light Co,68502,Vienna Walbec Customer Hosted,Map,Map,WI,Dane,MISO,Electric Utility,PV1,,1.4,1.4,1.4,Solar Photovoltaic,SUN,PV,5,2026,"(U) Under construction, less than or equal to 50 percent complete",43.208435,-89.41019
66917,"East Avenue Q Solar Project 2022, LLC",68542,Palmdale Water District 6MG Tank,Map,Map,CA,Los Angeles,CISO,IPP Non-CHP,7170B,,0.3,0.3,0.3,Batteries,MWH,BA,5,2026,"(V) Under construction, more than 50 percent complete",34.558047,-118.1187
66917,"East Avenue Q Solar Project 2022, LLC",68542,Palmdale Water District 6MG Tank,Map,Map,CA,Los Angeles,CISO,IPP Non-CHP,7170G,,1,1,1,Solar Photovoltaic,SUN,PV,5,2026,"(V) Under construction, more than 50 percent complete",34.558047,-118.1187
66945,"South Springfield Avenue Solar Project 2022, LLC",68571,"Lowe's - 1440 - Rockford, IL RDC (POI 1)",Map,Map,IL,Winnebago,MISO,IPP Non-CHP,7481,,2.3,2.3,2.3,Solar Photovoltaic,SUN,PV,5,2026,"(V) Under construction, more than 50 percent complete",42.239075,-89.13187
66946,"South Springfield Avenue II Solar Project 2022, LLC",68572,"Lowe's - 1440 - Rockford, IL RDC (POI 2)",Map,Map,IL,Winnebago,MISO,IPP Non-CHP,7824,,2.3,2.3,2.3,Solar Photovoltaic,SUN,PV,5,2026,"(V) Under construction, more than 50 percent complete",42.239075,-89.13187
67159,Padua 2,68913,Padua 2,Map,Map,TX,Bexar,ERCO,IPP Non-CHP,12342,,150,150,150,Batteries,MWH,BA,5,2026,"(V) Under construction, more than 50 percent complete",29.325064,-98.32562
67172,"SV CSG Corbell, LLC",68933,SV CSG Corbell,Map,Map,IL,Williamson,MISO,IPP Non-CHP,CORB,,2,2,2,Solar Photovoltaic,SUN,PV,5,2026,"(V) Under construction, more than 50 percent complete",37.758343,-89.05748
67186,Ashley Solar LLC PV,68974,Ashley Solar LLC PV,Map,Map,IL,Washington,MISO,IPP Non-CHP,13526,,5,5,4.8,Solar Photovoltaic,SUN,PV,5,2026,"(U) Under construction, less than or equal to 50 percent complete",38.325312,-89.19887
22500,"Evergy Kansas Central, Inc",69036,Chanute Solar,Map,Map,KS,Neosho,SWPP,Electric Utility,CHANS,,6,6,6,Solar Photovoltaic,SUN,PV,5,2026,"(V) Under construction, more than 50 percent complete",37.637,-95.468
67218,"ATLAS SOLAR IV, LLC",69055,ATLAS SOLAR IV,Map,Map,AZ,La Paz,CISO,IPP Non-CHP,ALTS4,,300,300,300,Solar Photovoltaic,SUN,PV,5,2026,"(V) Under construction, more than 50 percent complete",33.582903,-113.5769
49893,Invenergy Services LLC,69111,Trade Post Solar,Map,Map,IN,Sullivan,PJM,IPP Non-CHP,TRADE,,200,200,200,Solar Photovoltaic,SUN,PV,5,2026,"(V) Under construction, more than 50 percent complete",39.238271,-87.51133
67302,Apache Hill Energy Center,69155,Apache Hill Energy Center,Map,Map,TX,Hood,ERCO,IPP Non-CHP,AHBA1,,200,200,200,Batteries,MWH,BA,5,2026,"(V) Under construction, more than 50 percent complete",32.380005,-97.72782
67306,Carambola BESS LLC,69168,Carambola BESS,Map,Map,TX,Hidalgo,ERCO,IPP Non-CHP,CRBLA,,98.4,98.4,98.4,Batteries,MWH,BA,5,2026,"(U) Under construction, less than or equal to 50 percent complete",26.24973,-98.23883
61194,Generate Capital,69175,Arlington 2,Map,Map,IL,Bureau,MISO,IPP Non-CHP,11239,,4.5,4.5,4.5,Solar Photovoltaic,SUN,PV,5,2026,"(U) Under construction, less than or equal to 50 percent complete",41.454503,-89.29475
61194,Generate Capital,69180,Cold Springs,Map,Map,NY,Onondaga,NYIS,IPP Non-CHP,11254,,5,5,5,Solar Photovoltaic,SUN,PV,5,2026,"(U) Under construction, less than or equal to 50 percent complete",43.137912,-76.27779
67337,"ESTX-PLD-HOUSTON2, LLC",69200,SAHARA BESS (SOHO BESS),Map,Map,TX,Brazoria,ERCO,IPP Non-CHP,SOHO1,,204.4,204.4,204.4,Batteries,MWH,BA,5,2026,"(V) Under construction, more than 50 percent complete",29.452067,-95.30828
67337,"ESTX-PLD-HOUSTON2, LLC",69200,SAHARA BESS (SOHO BESS),Map,Map,TX,Brazoria,ERCO,IPP Non-CHP,SOHO2,,204.3,204.3,204.3,Batteries,MWH,BA,5,2026,"(V) Under construction, more than 50 percent complete",29.452067,-95.30828
61194,Generate Capital,69205,Lodi I,Map,Map,NY,Schuyler,NYIS,IPP Non-CHP,11249,,5,5,5,Solar Photovoltaic,SUN,PV,5,2026,"(U) Under construction, less than or equal to 50 percent complete",42.588337,-76.84425
61194,Generate Capital,69206,Lodi II,Map,Map,NY,Schuyler,NYIS,IPP Non-CHP,11250,,5,5,5,Solar Photovoltaic,SUN,PV,5,2026,"(U) Under construction, less than or equal to 50 percent complete",42.586527,-76.84413
61194,Generate Capital,69220,West Genesee,Map,Map,NY,Onondaga,NYIS,IPP Non-CHP,11253,,2.9,2.9,2.9,Solar Photovoltaic,SUN,PV,5,2026,"(U) Under construction, less than or equal to 50 percent complete",43.165134,-76.41876
67331,"Dunkirk Solar One, LLC",69229,"Dunkirk Solar One, LLC",Map,Map,NY,Chautauqua,NYIS,IPP Non-CHP,21687,,5,5,5,Solar Photovoltaic,SUN,PV,5,2026,"(U) Under construction, less than or equal to 50 percent complete",42.497778,-79.30389
67335,"ATLAS Solar Manager, LLC",69238,"ATLAS Solar VI, LLC",Map,Map,AZ,La Paz,CISO,IPP Non-CHP,ATL6,,100,100,100,Solar Photovoltaic,SUN,PV,5,2026,"(U) Under construction, less than or equal to 50 percent complete",33.579227,-113.5742
67313,Ellomay USA Inc,69262,Hillsboro Solar Project,Map,Map,TX,Hill,ERCO,IPP Non-CHP,HILL1,,5,5,5,Solar Photovoltaic,SUN,PV,5,2026,"(V) Under construction, more than 50 percent complete",32.029636,-97.14555
67313,Ellomay USA Inc,69262,Hillsboro Solar Project,Map,Map,TX,Hill,ERCO,IPP Non-CHP,HILL2,,5,5,5,Solar Photovoltaic,SUN,PV,5,2026,"(V) Under construction, more than 50 percent complete",32.029636,-97.14555
67356,"RPC Merchant, LLC",69269,Pyote Gas,Map,Map,TX,Ward,ERCO,IPP Non-CHP,PYOT1,,2.5,2.5,2.5,Natural Gas Internal Combustion Engine,NG,IC,5,2026,"(V) Under construction, more than 50 percent complete",31.453114,-103.096
67356,"RPC Merchant, LLC",69269,Pyote Gas,Map,Map,TX,Ward,ERCO,IPP Non-CHP,PYOT2,,2.5,2.5,2.5,Natural Gas Internal Combustion Engine,NG,IC,5,2026,"(V) Under construction, more than 50 percent complete",31.453114,-103.096
67356,"RPC Merchant, LLC",69269,Pyote Gas,Map,Map,TX,Ward,ERCO,IPP Non-CHP,PYOT3,,2.5,2.5,2.5,Natural Gas Internal Combustion Engine,NG,IC,5,2026,"(V) Under construction, more than 50 percent complete",31.453114,-103.096
67356,"RPC Merchant, LLC",69269,Pyote Gas,Map,Map,TX,Ward,ERCO,IPP Non-CHP,PYOT4,,2.5,2.5,2.5,Natural Gas Internal Combustion Engine,NG,IC,5,2026,"(V) Under construction, more than 50 percent complete",31.453114,-103.096
67372,"Dunkirk Solar Two, LLC",69274,Dunkirk Solar Two,Map,Map,NY,Chautauqua,NYIS,IPP Non-CHP,21687,,4.8,4.8,4.8,Solar Photovoltaic,SUN,PV,5,2026,"(U) Under construction, less than or equal to 50 percent complete",42.497778,-79.30389
67381,Three W Solar LLC,69283,Three W Solar,Map,Map,TX,Hill,ERCO,Commercial Non-CHP,TWPV1,,110.9,110.9,110.9,Solar Photovoltaic,SUN,PV,5,2026,"(V) Under construction, more than 50 percent complete",32.032404,-97.21424
67382,Project Lynx - Giga Texas Energy,69286,Project Lynx,Map,Map,TX,Nueces,ERCO,IPP Non-CHP,LYNX,,125,125,125,Batteries,MWH,BA,5,2026,"(V) Under construction, more than 50 percent complete",27.729157,-97.73308
56990,NJR Clean Energy Ventures Corporation,69291,Esky Solar,Map,Map,NJ,Gloucester,PJM,IPP Non-CHP,ESKY1,,7,7,7,Solar Photovoltaic,SUN,PV,5,2026,"(V) Under construction, more than 50 percent complete",39.71,-75.2
67411,"Apple Infra, LLC",69318,Apple BESS,Map,Map,TX,Ector,ERCO,IPP Non-CHP,APPLE,,9.9,9.9,9.9,Batteries,MWH,BA,5,2026,"(U) Under construction, less than or equal to 50 percent complete",31.675697,-102.3638
67423,Lysander III PV LLC,69375,Lysander III PV,Map,Map,NY,Onondaga,NYIS,IPP Non-CHP,LYSAN,,2.4,2.4,2.4,Solar Photovoltaic,SUN,PV,5,2026,"(V) Under construction, more than 50 percent complete",43.219759,-76.38847
67425,New Freedom Solar Partners LLC,69377,New Freedom Solar Partners,Map,Map,PA,York,PJM,IPP Non-CHP,NEWFR,,2.5,2.5,2.5,Solar Photovoltaic,SUN,PV,5,2026,"(V) Under construction, more than 50 percent complete",36.745,-76.696
49893,Invenergy Services LLC,69474,Sweet Sue Solar,Map,Map,VA,King William,PJM,IPP Non-CHP,SWTSU,,74.8,74.8,74.8,Solar Photovoltaic,SUN,PV,5,2026,"(V) Under construction, more than 50 percent complete",37.762,-77.191
6455,"Duke Energy Florida, LLC",69627,Jumper Creek Solar Plant,Map,Map,FL,Sumter,FPC,Electric Utility,JCSP1,,74.9,74.9,74.9,Solar Photovoltaic,SUN,PV,5,2026,"(V) Under construction, more than 50 percent complete",28.954544,-82.17652
1512,City of Belleville - (KS),1263,Belleville,Map,Map,KS,Republic,SWPP,Electric Utility,9,,3,3,3,Petroleum Liquids,DFO,IC,6,2026,"(U) Under construction, less than or equal to 50 percent complete",39.832769,-97.63204
