Entity ID,Entity Name,Plant ID,Plant Name,Google Map,Bing Map,Plant State,County,Balancing Authority Code,Sector,Generator ID,Unit Code,Nameplate Capacity (MW),Net Summer Capacity (MW),Net Winter Capacity (MW),Technology,Energy Source Code,Prime Mover Code,Planned Operation Month,Planned Operation Year,Status,Latitude,Longitude
65394,"Proxima Solar, LLC",66270,Proxima,Map,Map,CA,Stanislaus,CISO,IPP Non-CHP,PRXMA,,190,190,190,Solar Photovoltaic,SUN,PV,6,2024,"(TS) Construction complete, but not yet in commercial operation",37.40035,-121.1628
65965,"Crow Creek Solar, LLC",67092,Paulsell,Map,Map,CA,Stanislaus,CISO,IPP Non-CHP,PSLBA,,15,15,15,Batteries,MWH,BA,6,2024,"(TS) Construction complete, but not yet in commercial operation",37.374065,-121.1352
65965,"Crow Creek Solar, LLC",67092,Paulsell,Map,Map,CA,Stanislaus,CISO,IPP Non-CHP,PSLPV,,20,20,20,Solar Photovoltaic,SUN,PV,6,2024,"(TS) Construction complete, but not yet in commercial operation",37.374065,-121.1352
12199,Montana-Dakota Utilities Co,2790,R M Heskett,Map,Map,ND,Morton,MISO,Electric Utility,4,,88.4,88.4,118.8,Natural Gas Fired Combustion Turbine,NG,GT,7,2024,"(TS) Construction complete, but not yet in commercial operation",46.8669,-100.8836
221,"Alaska Village Elec Coop, Inc",6566,Bethel,Map,Map,AK,Bethel,,Electric Utility,7A,,0.3,0.3,0.3,Petroleum Liquids,DFO,IC,7,2024,"(TS) Construction complete, but not yet in commercial operation",60.7897,-161.7878
17845,City of Springville - (UT),7028,Whitehead,Map,Map,UT,Utah,PACE,Electric Utility,K3CAT,,2.5,2.5,2.5,Natural Gas Internal Combustion Engine,NG,IC,7,2024,"(V) Under construction, more than 50 percent complete",40.1817,-111.6203
17845,City of Springville - (UT),7028,Whitehead,Map,Map,UT,Utah,PACE,Electric Utility,K4CAT,,2.5,2.5,2.5,Natural Gas Internal Combustion Engine,NG,IC,7,2024,"(V) Under construction, more than 50 percent complete",40.1817,-111.6203
17845,City of Springville - (UT),7028,Whitehead,Map,Map,UT,Utah,PACE,Electric Utility,K5CAT,,2.5,2.5,2.5,Natural Gas Internal Combustion Engine,NG,IC,7,2024,"(V) Under construction, more than 50 percent complete",40.1817,-111.6203
13407,Nevada Power Co,55841,Silverhawk,Map,Map,NV,Clark,NEVP,Electric Utility,CT3,,210.1,222.6,221.4,Natural Gas Fired Combustion Turbine,NG,GT,7,2024,"(V) Under construction, more than 50 percent complete",36.4078,-114.9606
13407,Nevada Power Co,55841,Silverhawk,Map,Map,NV,Clark,NEVP,Electric Utility,CT4,,210.1,222.6,221.4,Natural Gas Fired Combustion Turbine,NG,GT,7,2024,"(TS) Construction complete, but not yet in commercial operation",36.4078,-114.9606
59598,Tooele Army Depot,59817,Tooele Army Depot(CSG),Map,Map,UT,Tooele,PACE,IPP Non-CHP,PV2,,1.5,1.5,1.2,Solar Photovoltaic,SUN,PV,7,2024,"(U) Under construction, less than or equal to 50 percent complete",40.50303,-112.3706
59967,Phoenix Energy,60192,North Fork Community Power,Map,Map,CA,Madera,CISO,IPP Non-CHP,NFCP1,,1.7,1.3,1.3,Other Waste Biomass,OBG,IC,7,2024,"(V) Under construction, more than 50 percent complete",37.231531,-119.4943
59967,Phoenix Energy,60192,North Fork Community Power,Map,Map,CA,Madera,CISO,IPP Non-CHP,NFCP2,,1.7,1.3,1.3,Other Waste Biomass,OBG,IC,7,2024,"(V) Under construction, more than 50 percent complete",37.231531,-119.4943
60217,San Bernardino Valley Mun. Water Dist.,60466,Waterman Turnout Hydroelectric,Map,Map,CA,San Bernardino,CISO,Electric Utility,WTHF,,1,1,1,Conventional Hydroelectric,WAT,HY,7,2024,"(V) Under construction, more than 50 percent complete",34.172625,-117.278
50123,"Leeward Asset Management, LLC",60572,White Wing Solar,Map,Map,AZ,Yuma,CISO,IPP Non-CHP,GEN01,,175,175,175,Solar Photovoltaic,SUN,PV,7,2024,"(TS) Construction complete, but not yet in commercial operation",32.994056,-113.5088
56201,Engie North America,61801,"Cascade Energy Storage, LLC",Map,Map,CA,San Joaquin,CISO,IPP Non-CHP,10002,,25,25,25,Batteries,MWH,BA,7,2024,"(TS) Construction complete, but not yet in commercial operation",37.920124,-121.2392
56201,Engie North America,61803,"Sierra Energy Storage, LLC",Map,Map,CA,Tuolumne,CISO,IPP Non-CHP,10003,,10,10,10,Batteries,MWH,BA,7,2024,"(V) Under construction, more than 50 percent complete",37.8744,-120.4774
17609,Southern California Edison Co,63325,Yorktown Battery Energy Storage Facility,Map,Map,CA,Los Angeles,CISO,Electric Utility,YORK1,,3,3,3,Batteries,MWH,BA,7,2024,"(V) Under construction, more than 50 percent complete",34.00467,-118.0684
17609,Southern California Edison Co,63326,Cadillac Battery Energy Storage Facility,Map,Map,CA,Los Angeles,CISO,Electric Utility,CAD1,,3.5,3.5,3.5,Batteries,MWH,BA,7,2024,"(V) Under construction, more than 50 percent complete",34.00469,-118.0684
11806,Massachusetts Mun Wholes Electric Co,63559,MMWEC Simple Cycle Gas Turbine,Map,Map,MA,Essex,ISNE,Electric Utility,GT1,,65,57,59,Natural Gas Fired Combustion Turbine,NG,GT,7,2024,"(TS) Construction complete, but not yet in commercial operation",42.54342,-70.92797
58970,"Ecoplexus, Inc",63870,Camp San Luis Obispo,Map,Map,CA,San Luis Obispo,CISO,IPP Non-CHP,CPSLO,,1.2,1.2,1.2,Solar Photovoltaic,SUN,PV,7,2024,"(TS) Construction complete, but not yet in commercial operation",35.322043,-120.7323
56215,"RWE Renewables Americas, LLC",63877,"Willowbrook Solar I, LLC",Map,Map,OH,Highland,PJM,IPP Non-CHP,WBS,,150,150,150,Solar Photovoltaic,SUN,PV,7,2024,"(V) Under construction, more than 50 percent complete",39.021755,-83.70501
57313,Tesla Inc.,64098,Tesla Reno GigaFactory,Map,Map,NV,Storey,NEVP,Industrial Non-CHP,3,,1,1,1,Solar Photovoltaic,SUN,PV,7,2024,"(TS) Construction complete, but not yet in commercial operation",39.539511,-119.4392
63830,"7V Solar Ranch, LLC",64239,7V Solar Ranch,Map,Map,TX,Fayette,ERCO,IPP Non-CHP,7V1,,240,240,240,Solar Photovoltaic,SUN,PV,7,2024,"(V) Under construction, more than 50 percent complete",29.806984,-97.07408
65600,AP Sunray LLC,64258,AP Sunray LLC,Map,Map,TX,Uvalde,ERCO,IPP Non-CHP,OCISR,,200,200,200,Solar Photovoltaic,SUN,PV,7,2024,"(U) Under construction, less than or equal to 50 percent complete",29.291845,-99.61237
60531,Standard Solar,64530,Woodville Solar,Map,Map,RI,Washington,ISNE,IPP Non-CHP,1,,4.5,4.5,4.5,Solar Photovoltaic,SUN,PV,7,2024,"(U) Under construction, less than or equal to 50 percent complete",41.45854,-71.70421
57416,"Acciona Energy USA Global, LLC",64660,"AEUG Union Solar, LLC",Map,Map,OH,Union,PJM,IPP Non-CHP,AUS,,325,325,325,Solar Photovoltaic,SUN,PV,7,2024,"(V) Under construction, more than 50 percent complete",40.437526,-83.48349
66029,Novel Froehle Solar HQ LLC,64728,Novel Froehle Solar LLC,Map,Map,MN,Stearns,MISO,IPP Non-CHP,FROLE,,1,1,1,Solar Photovoltaic,SUN,PV,7,2024,"(TS) Construction complete, but not yet in commercial operation",45.467562,-94.39816
66030,Novel Milbradt Solar HQ LLC,64729,Novel Milbradt Solar LLC,Map,Map,MN,Redwood,MISO,IPP Non-CHP,MLBRT,,1,1,1,Solar Photovoltaic,SUN,PV,7,2024,"(TS) Construction complete, but not yet in commercial operation",44.651132,-95.33955
64348,ASD Three Rivers Road MA Solar LLC,64844,Three Rivers Solar LLC,Map,Map,MA,Hampden,ISNE,IPP Non-CHP,TRB,,1.4,1.4,1.4,Batteries,MWH,BA,7,2024,"(U) Under construction, less than or equal to 50 percent complete",42.16882,-72.39438
64348,ASD Three Rivers Road MA Solar LLC,64844,Three Rivers Solar LLC,Map,Map,MA,Hampden,ISNE,IPP Non-CHP,TRS,,4,4,4,Solar Photovoltaic,SUN,PV,7,2024,"(U) Under construction, less than or equal to 50 percent complete",42.16882,-72.39438
64446,ASD Cotuit MA Solar LLC,65014,ASD Cotuit MA Solar LLC,Map,Map,MA,Barnstable,ISNE,IPP Non-CHP,COT1B,,2.5,2.5,2.5,Batteries,MWH,BA,7,2024,"(V) Under construction, more than 50 percent complete",41.688722,-70.47748
62842,"Lightsource Renewable Energy Asset Management, LLC",65030,Oxbow Solar 1,Map,Map,LA,Pointe Coupee,MISO,IPP Non-CHP,LAVE1,,300,300,300,Solar Photovoltaic,SUN,PV,7,2024,"(TS) Construction complete, but not yet in commercial operation",30.667878,-91.39171
57313,Tesla Inc.,65070,Austin TX GigaFactory,Map,Map,TX,Travis,ERCO,Industrial Non-CHP,B05,,1.2,1.2,1.2,Solar Photovoltaic,SUN,PV,7,2024,"(U) Under construction, less than or equal to 50 percent complete",30.22021,-97.61968
57313,Tesla Inc.,65070,Austin TX GigaFactory,Map,Map,TX,Travis,ERCO,Industrial Non-CHP,B07,,1.1,1.1,1.1,Solar Photovoltaic,SUN,PV,7,2024,"(U) Under construction, less than or equal to 50 percent complete",30.22021,-97.61968
57313,Tesla Inc.,65070,Austin TX GigaFactory,Map,Map,TX,Travis,ERCO,Industrial Non-CHP,C01,,1.2,1.2,1.2,Solar Photovoltaic,SUN,PV,7,2024,"(U) Under construction, less than or equal to 50 percent complete",30.22021,-97.61968
62842,"Lightsource Renewable Energy Asset Management, LLC",65079,Cottontail Solar 4,Map,Map,PA,Northumberland,PJM,IPP Non-CHP,PACT4,,20,20,20,Solar Photovoltaic,SUN,PV,7,2024,"(V) Under construction, more than 50 percent complete",40.988822,-76.79292
64532,ASA Clayton NY Solar I LLC,65161,ASA Clayton NY Solar I LLC,Map,Map,NY,Jefferson,NYIS,IPP Non-CHP,CLA1,,1.3,1.3,1.3,Solar Photovoltaic,SUN,PV,7,2024,"(V) Under construction, more than 50 percent complete",44.161761,-76.10899
64673,"Ross County Solar, LLC",65343,"Ross County Solar, LLC",Map,Map,OH,Ross,PJM,IPP Non-CHP,ROSS,,120,120,120,Solar Photovoltaic,SUN,PV,7,2024,"(V) Under construction, more than 50 percent complete",39.325867,-83.35276
64740,"Santa Paula Energy Storage, LLC",65397,Santa Paula Energy Storage LLC,Map,Map,CA,Ventura,CISO,IPP Non-CHP,SP1,,30,30,30,Batteries,MWH,BA,7,2024,"(V) Under construction, more than 50 percent complete",34.35716,-119.055
56201,Engie North America,65488,Crockett,Map,Map,TX,Houston,ERCO,IPP Non-CHP,CROKT,,9.9,9.9,9.9,Batteries,MWH,BA,7,2024,"(U) Under construction, less than or equal to 50 percent complete",31.377355,-95.47908
56201,Engie North America,65489,Dickens,Map,Map,TX,Dickens,ERCO,IPP Non-CHP,DIKNS,,200,200,200,Batteries,MWH,BA,7,2024,"(V) Under construction, more than 50 percent complete",33.781077,-100.8832
56201,Engie North America,65490,Hydra,Map,Map,TX,Pecos,ERCO,IPP Non-CHP,HYDRA,,200,200,200,Batteries,MWH,BA,7,2024,"(V) Under construction, more than 50 percent complete",30.992905,-102.2895
56201,Engie North America,65491,Paleo,Map,Map,TX,Hale,ERCO,IPP Non-CHP,PALEO,,200,200,200,Batteries,MWH,BA,7,2024,"(U) Under construction, less than or equal to 50 percent complete",33.889462,-101.8016
56201,Engie North America,65492,Pavo,Map,Map,TX,Pecos,ERCO,IPP Non-CHP,PAVO,,175,175,175,Batteries,MWH,BA,7,2024,"(V) Under construction, more than 50 percent complete",30.885123,-102.4226
56201,Engie North America,65493,Tortolas,Map,Map,TX,Brazoria,ERCO,IPP Non-CHP,TORTO,,50,50,50,Batteries,MWH,BA,7,2024,"(U) Under construction, less than or equal to 50 percent complete",29.432362,-95.2507
66027,Orsted Wind Power North America LLC,65561,South Fork Wind,Map,Map,NY,Suffolk,NYIS,IPP Non-CHP,SFWND,,130,130,130,Offshore Wind Turbine,WND,WS,7,2024,"(TS) Construction complete, but not yet in commercial operation",41.09,-71.13
56201,Engie North America,65590,Octans,Map,Map,TX,Pecos,ERCO,IPP Non-CHP,OCTNS,,125,125,125,Batteries,MWH,BA,7,2024,"(U) Under construction, less than or equal to 50 percent complete",31.000575,-102.6799
64966,"Vikings Energy Farm, LLC",65711,Vikings Energy Farm,Map,Map,CA,Imperial,IID,IPP Non-CHP,GEN1,,136.8,136.8,136.8,Solar Photovoltaic,SUN,PV,7,2024,"(V) Under construction, more than 50 percent complete",32.803363,-115.2717
65087,"SMS DC CS01B, LLC",65896,Gallaudet Uni Community Solar,Map,Map,DC,District of Columbia,PJM,IPP Non-CHP,GUCS1,,2.6,2.6,2.6,Solar Photovoltaic,SUN,PV,7,2024,"(V) Under construction, more than 50 percent complete",38.90724,-76.99372
65112,"TotalEnergies Distributed Generation, LLC",65940,Shasta College PH2 Solar Project,Map,Map,CA,Shasta,CISO,Commercial Non-CHP,SCSP1,,1.5,1.3,1.1,Solar Photovoltaic,SUN,PV,7,2024,"(TS) Construction complete, but not yet in commercial operation",40.62524,-122.314
65112,"TotalEnergies Distributed Generation, LLC",65940,Shasta College PH2 Solar Project,Map,Map,CA,Shasta,CISO,Commercial Non-CHP,SCSPB,,0.5,0.5,0.5,Batteries,MWH,BA,7,2024,"(TS) Construction complete, but not yet in commercial operation",40.62524,-122.314
65280,"Babbitt Ranch Energy Center, LLC",66110,Babbitt Ranch Energy Center,Map,Map,AZ,Coconino,SRP,IPP Non-CHP,BREC1,,163,163,163,Onshore Wind Turbine,WND,WT,7,2024,"(U) Under construction, less than or equal to 50 percent complete",35.627731,-111.8679
57416,"Acciona Energy USA Global, LLC",66157,Red Tailed Hawk Solar LLC,Map,Map,TX,Wharton,ERCO,IPP Non-CHP,GEN1,,350,350,350,Solar Photovoltaic,SUN,PV,7,2024,"(V) Under construction, more than 50 percent complete",29.159228,-96.14157
63235,Brookfield Renewable Trading and Marketing LP,66167,AM Wind Repower LLC,Map,Map,CA,Riverside,CISO,IPP Non-CHP,63235,,27,27,27,Onshore Wind Turbine,WND,WT,7,2024,"(V) Under construction, more than 50 percent complete",33.943741,-116.6615
65308,Cattlemen Solar Park LLC,66168,Cattlemen Solar Park,Map,Map,TX,Milam,ERCO,IPP Non-CHP,GEN01,,240,240,240,Solar Photovoltaic,SUN,PV,7,2024,"(TS) Construction complete, but not yet in commercial operation",31.045676,-96.85863
65361,CT Cutlass II Solar LLC,66262,Rowland Solar II,Map,Map,TX,Fort Bend,ERCO,IPP Non-CHP,SAREN,,202.8,200,200,Solar Photovoltaic,SUN,PV,7,2024,"(TS) Construction complete, but not yet in commercial operation",29.39,-95.78
9191,Idaho Power Co,66325,Hemmingway BESS,Map,Map,ID,Owyhee,IPCO,Electric Utility,1,,80,80,80,Batteries,MWH,BA,7,2024,"(U) Under construction, less than or equal to 50 percent complete",43.35151,-116.6621
9191,Idaho Power Co,66326,Black Mesa BESS,Map,Map,ID,Elmore,IPCO,Electric Utility,1,,40,40,40,Batteries,MWH,BA,7,2024,"(U) Under construction, less than or equal to 50 percent complete",42.908446,-115.1813
9191,Idaho Power Co,66327,Elmore BESS,Map,Map,ID,Elmore,IPCO,Electric Utility,1,,4,4,4,Batteries,MWH,BA,7,2024,"(U) Under construction, less than or equal to 50 percent complete",43.17756,-115.7167
9191,Idaho Power Co,66328,Filer BESS,Map,Map,ID,Twin Falls,IPCO,Electric Utility,1,,2,2,2,Batteries,MWH,BA,7,2024,"(U) Under construction, less than or equal to 50 percent complete",42.57156,-114.5951
9191,Idaho Power Co,66329,Melba BESS,Map,Map,ID,Canyon,IPCO,Electric Utility,1,,2,2,2,Batteries,MWH,BA,7,2024,"(U) Under construction, less than or equal to 50 percent complete",43.372252,-116.5609
9191,Idaho Power Co,66330,Weiser BESS,Map,Map,ID,Washington,IPCO,Electric Utility,1,,3,3,3,Batteries,MWH,BA,7,2024,"(U) Under construction, less than or equal to 50 percent complete",44.24753,-116.9853
65419,"Superstition Energy Storage, LLC",66333,Superstition Energy Storage,Map,Map,AZ,Maricopa,SRP,IPP Non-CHP,BESS4,,90,90,90,Batteries,MWH,BA,7,2024,"(V) Under construction, more than 50 percent complete",33.35898,-111.8311
64994,SolRiver Capital LLC,66345,Elk Solar LLC,Map,Map,NC,Hoke,DUK,IPP Non-CHP,PV1,,5,5,5,Solar Photovoltaic,SUN,PV,7,2024,"(TS) Construction complete, but not yet in commercial operation",34.983948,-79.27671
65502,"Five Wells Solar Center, LLC",66420,Five Wells Solar Center - Hybrid,Map,Map,TX,Bell,ERCO,IPP Non-CHP,FWBAT,,262.5,259,259,Batteries,MWH,BA,7,2024,"(TS) Construction complete, but not yet in commercial operation",30.998647,-97.25902
65550,"Nova Power, LLC",66494,Menifee Power Bank,Map,Map,CA,Riverside,CISO,IPP Non-CHP,NOVA2,,230,230,230,Batteries,MWH,BA,7,2024,"(V) Under construction, more than 50 percent complete",33.739005,-117.1698
65555,West Tambo Clean Power II,66506,West Tambo Clean Power II,Map,Map,CA,Merced,CISO,IPP Non-CHP,WEST2,,2,2,2,Solar Photovoltaic,SUN,PV,7,2024,"(U) Under construction, less than or equal to 50 percent complete",37.360955,-120.7194
65514,Catalyze Manteca 730 Spreckels Avenue Microgrid LLC,66509,CA Manteca 730 Spreckels Ave,Map,Map,CA,San Joaquin,CISO,IPP Non-CHP,18259,,1.5,1.5,1.5,Solar Photovoltaic,SUN,PV,7,2024,"(TS) Construction complete, but not yet in commercial operation",37.788679,-121.1945
65514,Catalyze Manteca 730 Spreckels Avenue Microgrid LLC,66509,CA Manteca 730 Spreckels Ave,Map,Map,CA,San Joaquin,CISO,IPP Non-CHP,B8259,,1.5,1.5,1.5,Batteries,MWH,BA,7,2024,"(TS) Construction complete, but not yet in commercial operation",37.788679,-121.1945
65564,"Catalyze Dallas 7750 Dynasty Drive Microgrid, LLC",66516,TX Dallas 7750 Dynasty Drive,Map,Map,TX,Dallas,ERCO,IPP Non-CHP,19500,,2.3,2.3,2.3,Solar Photovoltaic,SUN,PV,7,2024,"(TS) Construction complete, but not yet in commercial operation",32.652269,-96.75577
65565,"Catalyze Houston Express Lane Microgrid, LLC",66517,TX Houston 7080 Express Lane,Map,Map,TX,Harris,ERCO,IPP Non-CHP,19344,,1.9,1.9,1.9,Solar Photovoltaic,SUN,PV,7,2024,"(TS) Construction complete, but not yet in commercial operation",29.825138,-95.24706
64743,PPM Solar LLC,66571,BKV Ponder Solar 1,Map,Map,TX,Denton,ERCO,IPP Non-CHP,BKVP1,,2.5,2.5,2.5,Solar Photovoltaic,SUN,PV,7,2024,"(V) Under construction, more than 50 percent complete",33.155767,-97.25464
63082,ProEnergy Services,66604,Remy Jade Power Station,Map,Map,TX,Harris,ERCO,IPP Non-CHP,CTG-7,,60.5,44.5,49.8,Natural Gas Fired Combustion Turbine,NG,GT,7,2024,"(V) Under construction, more than 50 percent complete",29.848372,-95.0164
63082,ProEnergy Services,66604,Remy Jade Power Station,Map,Map,TX,Harris,ERCO,IPP Non-CHP,CTG-8,,60.5,44.5,49.8,Natural Gas Fired Combustion Turbine,NG,GT,7,2024,"(V) Under construction, more than 50 percent complete",29.848372,-95.0164
65643,Cald BESS LLC,66617,Cald BESS,Map,Map,CA,Los Angeles,CISO,IPP Non-CHP,1,,100,100,100,Batteries,MWH,BA,7,2024,"(TS) Construction complete, but not yet in commercial operation",33.955872,-118.2321
65650,"Harvest Gold Solar Power, LLC",66623,Harvest Gold Solar,Map,Map,MS,Sunflower,MISO,IPP Non-CHP,HGS,,99,99,99,Solar Photovoltaic,SUN,PV,7,2024,"(TS) Construction complete, but not yet in commercial operation",33.505,-90.636
65654,Birch Creek Development,66628,"Altona Solar, LLC",Map,Map,MO,Audrain,MISO,IPP Non-CHP,PV,,30,30,30,Solar Photovoltaic,SUN,PV,7,2024,"(U) Under construction, less than or equal to 50 percent complete",39.28345,-92.14203
65674,Bear Canyon Energy Storage,66650,Bear Canyon,Map,Map,CA,Lake,CISO,IPP Non-CHP,BC1,,13,13,13,Batteries,MWH,BA,7,2024,"(V) Under construction, more than 50 percent complete",38.762781,-122.6928
65685,"Tumbleweed Energy Storage, LLC",66666,Tumbleweed Energy Storage,Map,Map,CA,Kern,CISO,IPP Non-CHP,TWES1,,50,50,50,Batteries,MWH,BA,7,2024,"(TS) Construction complete, but not yet in commercial operation",34.83427,-118.339
65675,West Ford Flat Energy Storage,66669,West Ford Flat,Map,Map,CA,Lake,CISO,IPP Non-CHP,WFF1,,25,25,25,Batteries,MWH,BA,7,2024,"(V) Under construction, more than 50 percent complete",38.788111,-122.7218
65696,"Brazos Bend BESS, LLC",66690,"Brazos Bend BESS, LLC",Map,Map,TX,Fort Bend,ERCO,IPP Non-CHP,BEND,,100,100,100,Batteries,MWH,BA,7,2024,"(TS) Construction complete, but not yet in commercial operation",29.56318,-95.80023
65720,"Fresno Community Solar Developers, LLC",66715,Fresno Community Solar,Map,Map,CA,Fresno,CISO,IPP Non-CHP,FREPV,,10,10,10,Solar Photovoltaic,SUN,PV,7,2024,"(TS) Construction complete, but not yet in commercial operation",36.696,-119.885
60025,Greenbacker Renewable Energy Corporation,66750,Mahany,Map,Map,NY,Steuben,NYIS,IPP Non-CHP,782,,3,3,3,Solar Photovoltaic,SUN,PV,7,2024,"(V) Under construction, more than 50 percent complete",42.469941,-77.69541
65754,VESI 12 LLC,66757,Bottleneck Energy Storage,Map,Map,CA,Tulare,CISO,IPP Non-CHP,BN1,,80,80,80,Batteries,MWH,BA,7,2024,"(V) Under construction, more than 50 percent complete",35.838361,-119.0884
65667,West Shore Solar LLC,66761,West Shore Solar LLC,Map,Map,NY,Ulster,NYIS,IPP Non-CHP,WS,,2.4,2.4,2.4,Solar Photovoltaic,SUN,PV,7,2024,"(V) Under construction, more than 50 percent complete",41.80327,-73.96494
65765,Borden County Battery Energy Storage System LLC,66804,Borden County BESS,Map,Map,TX,Borden,ERCO,IPP Non-CHP,1,,150,150,150,Batteries,MWH,BA,7,2024,"(TS) Construction complete, but not yet in commercial operation",32.72233,-101.6385
65775,"RPCA Solar 1, LLC",66809,Avenue 26 Solar,Map,Map,CA,Madera,CISO,IPP Non-CHP,A26P1,,2.6,2.6,2.6,Solar Photovoltaic,SUN,PV,7,2024,"(TS) Construction complete, but not yet in commercial operation",37.125754,-120.1788
65775,"RPCA Solar 1, LLC",66809,Avenue 26 Solar,Map,Map,CA,Madera,CISO,IPP Non-CHP,A26P2,,5,5,5,Solar Photovoltaic,SUN,PV,7,2024,"(TS) Construction complete, but not yet in commercial operation",37.125754,-120.1788
64872,"Distributed Solar Development, LLC",66827,FFP - NY Burch,Map,Map,NY,Washington,NYIS,IPP Non-CHP,P5651,,2.5,2.5,2.5,Solar Photovoltaic,SUN,PV,7,2024,"(V) Under construction, more than 50 percent complete",43.32265,-73.46798
64904,AES Clean Energy,66868,Big Spring Solar,Map,Map,MD,Washington,PJM,IPP Non-CHP,BIGSP,,2,2.1,2.1,Solar Photovoltaic,SUN,PV,7,2024,"(V) Under construction, more than 50 percent complete",39.6301,-77.9099
64904,AES Clean Energy,66885,Baldy Mesa 2_Silver Peak Hybrid,Map,Map,CA,San Bernardino,CISO,IPP Non-CHP,SPKBS,,25,25,25,Batteries,MWH,BA,7,2024,"(V) Under construction, more than 50 percent complete",34.609137,-117.4537
64904,AES Clean Energy,66885,Baldy Mesa 2_Silver Peak Hybrid,Map,Map,CA,San Bernardino,CISO,IPP Non-CHP,SPKPV,,50,50,50,Solar Photovoltaic,SUN,PV,7,2024,"(V) Under construction, more than 50 percent complete",34.609137,-117.4537
65826,"Roadrunner Crossing Wind Farm, LLC",66902,Roadrunner Wind Farm,Map,Map,TX,Eastland,ERCO,IPP Non-CHP,5317,,256,256,256,Onshore Wind Turbine,WND,WT,7,2024,"(TS) Construction complete, but not yet in commercial operation",32.437418,-99.10891
65827,Fork in the Road Solar LLC,66909,Fork in the Road Solar,Map,Map,NY,Dutchess,NYIS,IPP Non-CHP,FIR,,1.4,1.4,1.4,Solar Photovoltaic,SUN,PV,7,2024,"(V) Under construction, more than 50 percent complete",41.95,-73.75
61950,Terra-Gen Operating Co-Solar,66946,"Lockhart ESS, LLC",Map,Map,CA,San Bernardino,CISO,IPP Non-CHP,LHESS,,45,45,45,Batteries,MWH,BA,7,2024,"(TS) Construction complete, but not yet in commercial operation",35.032461,-117.3567
65863,"Three Corners Solar, LLC",66955,Three Corners Solar,Map,Map,ME,Waldo,ISNE,IPP Non-CHP,18099,,110,110,110,Solar Photovoltaic,SUN,PV,7,2024,"(TS) Construction complete, but not yet in commercial operation",44.612621,-69.45182
65785,"Luminace Sunbeam Development Holdings, LLC",66961,ME Novel Lighthouse - Penobscot,Map,Map,ME,Penobscot,ISNE,IPP Non-CHP,PENOB,,3,3,3,Solar Photovoltaic,SUN,PV,7,2024,"(V) Under construction, more than 50 percent complete",46.000113,-68.45582
65173,United States Solar Corporation,66973,MN East Regal LLC,Map,Map,MN,Stearns,MISO,IPP Non-CHP,MNERL,,1,1,1,Solar Photovoltaic,SUN,PV,7,2024,"(TS) Construction complete, but not yet in commercial operation",45.394755,-94.74221
65928,Atrisco Solar LLC,67003,Atrisco Solar LLC,Map,Map,NM,Bernalillo,PNM,IPP Non-CHP,ATRPV,,300,300,300,Solar Photovoltaic,SUN,PV,7,2024,"(TS) Construction complete, but not yet in commercial operation",35.189061,-106.8605
65935,Preston Garden LLC,67009,Preston Garden,Map,Map,MN,Renville,MISO,IPP Non-CHP,PRSTN,,1,1,1,Solar Photovoltaic,SUN,PV,7,2024,"(TS) Construction complete, but not yet in commercial operation",44.535906,-94.91133
61944,MN8 Energy LLC,67016,Dynamic - Enfield Hammett Road,Map,Map,ME,Penobscot,ISNE,IPP Non-CHP,GEN1,,4.9,4.9,4.9,Solar Photovoltaic,SUN,PV,7,2024,"(V) Under construction, more than 50 percent complete",45.243615,-68.6206
62759,National Grid Renewables,67019,"Copperhead Solar, LLC",Map,Map,TX,McLennan,ERCO,IPP Non-CHP,CHSLR,,150,150,150,Solar Photovoltaic,SUN,PV,7,2024,"(TS) Construction complete, but not yet in commercial operation",31.45,-96.86
62759,National Grid Renewables,67019,"Copperhead Solar, LLC",Map,Map,TX,McLennan,ERCO,IPP Non-CHP,CHSTG,,100,100,100,Batteries,MWH,BA,7,2024,"(V) Under construction, more than 50 percent complete",31.45,-96.86
65955,"Solitude Solar Russell County Rd 21 Microgrid, LLC",67031,NY Hermon 1040 County Rd 21,Map,Map,NY,St. Lawrence,NYIS,IPP Non-CHP,20144,,2.2,2.2,2.2,Solar Photovoltaic,SUN,PV,7,2024,"(TS) Construction complete, but not yet in commercial operation",44.432,-75.21
65960,"DG Empire Sun, LLC",67045,NY Avon I CSG,Map,Map,NY,Livingston,NYIS,IPP Non-CHP,AVON1,,5,5,5,Solar Photovoltaic,SUN,PV,7,2024,"(TS) Construction complete, but not yet in commercial operation",42.9002,-77.7295
60025,Greenbacker Renewable Energy Corporation,67056,Ledgeview,Map,Map,WI,Fond Du Lac,MISO,IPP Non-CHP,708,,5,5,5,Solar Photovoltaic,SUN,PV,7,2024,"(V) Under construction, more than 50 percent complete",43.779832,-88.34653
65954,Small Mouth Bass Solar Partners LLC,67072,Small Mouth Bass Solar,Map,Map,VA,Rockbridge,PJM,IPP Non-CHP,METER,,2.5,2.4,1.2,Solar Photovoltaic,SUN,PV,7,2024,"(V) Under construction, more than 50 percent complete",37.906257,-79.40387
65968,"Yellow Pine Solar II, LLC",67091,Yellow Pine II,Map,Map,NV,Clark,NEVP,IPP Non-CHP,YP2BP,,65,65,65,Solar Photovoltaic,SUN,PV,7,2024,"(V) Under construction, more than 50 percent complete",36.075505,-115.7913
9417,Interstate Power and Light Co,67097,Hy-Vee Customer Hosted 2.25MW Solar,Map,Map,IA,Lucas,MISO,Electric Utility,PV1,,2.3,2.3,2.3,Solar Photovoltaic,SUN,PV,7,2024,"(TS) Construction complete, but not yet in commercial operation",41.035595,-93.33099
9417,Interstate Power and Light Co,67099,Perry Customer Hosted 1MW Solar Project,Map,Map,IA,Dallas,MISO,Electric Utility,PV1,,1,1,1,Solar Photovoltaic,SUN,PV,7,2024,"(TS) Construction complete, but not yet in commercial operation",41.843474,-94.12034
66003,Reactivate,67106,"Gooseberry Solar, LLC",Map,Map,IL,Cook,PJM,IPP Non-CHP,GEN1,,2,2,2,Solar Photovoltaic,SUN,PV,7,2024,"(V) Under construction, more than 50 percent complete",41.520824,-87.57228
66003,Reactivate,67113,SSC Oswego II LLC,Map,Map,NY,Oswego,NYIS,IPP Non-CHP,GEN1,,4.8,4.8,4.8,Solar Photovoltaic,SUN,PV,7,2024,"(V) Under construction, more than 50 percent complete",43.470642,-76.47192
66003,Reactivate,67114,Torrence Ave Solar 1 LLC,Map,Map,IL,Cook,PJM,IPP Non-CHP,GEN1,,2,2,2,Solar Photovoltaic,SUN,PV,7,2024,"(V) Under construction, more than 50 percent complete",41.496,-87.56
66003,Reactivate,67115,"North Cottage Grove Solar 1, LLC",Map,Map,IL,Cook,PJM,IPP Non-CHP,GEN1,,2,2,2,Solar Photovoltaic,SUN,PV,7,2024,"(V) Under construction, more than 50 percent complete",41.526376,-87.60076
66033,Groton BESS 2 LLC,67162,Groton BESS 2,Map,Map,MA,Middlesex,ISNE,IPP Non-CHP,90910,,2,2,2,Batteries,MWH,BA,7,2024,"(V) Under construction, more than 50 percent complete",42.61566,-71.57778
66054,"Solar Star Bear Creek, LLC",67169,Bear Creek Solar (CA),Map,Map,CA,Contra Costa,CISO,Commercial Non-CHP,EBMUD,,5,5,3.8,Solar Photovoltaic,SUN,PV,7,2024,"(TS) Construction complete, but not yet in commercial operation",37.919197,-122.1863
9191,Idaho Power Co,67183,Franklin Battery Storage,Map,Map,ID,Twin Falls,IPCO,Electric Utility,FRBS,,60,60,60,Batteries,MWH,BA,7,2024,"(U) Under construction, less than or equal to 50 percent complete",42.192956,-114.6101
66067,Groton BESS 1 LLC,67185,Groton BESS 1,Map,Map,MA,Middlesex,ISNE,IPP Non-CHP,90911,,2,2,2,Batteries,MWH,BA,7,2024,"(V) Under construction, more than 50 percent complete",42.609132,-71.53915
66145,"Highland Ave Solar 1, LLC",67279,Borrego - Highland Ave,Map,Map,MA,Bristol,ISNE,IPP Non-CHP,6572,,5,5,5,Solar Photovoltaic,SUN,PV,7,2024,"(U) Under construction, less than or equal to 50 percent complete",41.661525,-71.05998
66145,"Highland Ave Solar 1, LLC",67279,Borrego - Highland Ave,Map,Map,MA,Bristol,ISNE,IPP Non-CHP,6572B,,5,5,5,Batteries,MWH,BA,7,2024,"(U) Under construction, less than or equal to 50 percent complete",41.661525,-71.05998
19499,"United Power, Inc",67304,Davis Battery Storage,Map,Map,CO,Weld,WACM,Electric Utility,DAVBA,,11.8,11.8,11.8,Batteries,MWH,BA,7,2024,"(TS) Construction complete, but not yet in commercial operation",40.144366,-104.7451
19499,"United Power, Inc",67307,Platte Valley Battery Storage,Map,Map,CO,Weld,PSCO,Electric Utility,PLVBA,,7.8,7.8,7.8,Batteries,MWH,BA,7,2024,"(TS) Construction complete, but not yet in commercial operation",39.988332,-104.8451
61227,Nautilus Solar Solutions,67405,Beech Road,Map,Map,MD,Prince Geroges,PJM,IPP Non-CHP,SC,,3,3,3,Solar Photovoltaic,SUN,PV,7,2024,"(U) Under construction, less than or equal to 50 percent complete",38.82294,-76.93471
61227,Nautilus Solar Solutions,67406,Comfort,Map,Map,NY,Erie,NYIS,IPP Non-CHP,SC,,4,4,4,Solar Photovoltaic,SUN,PV,7,2024,"(U) Under construction, less than or equal to 50 percent complete",43.0169,-78.9779
66194,"RPNY Solar 4, LLC",67407,Clemons Road Solar,Map,Map,NY,Onondaga,ISNE,IPP Non-CHP,CLEM,,2.8,2.8,2.8,Solar Photovoltaic,SUN,PV,7,2024,"(TS) Construction complete, but not yet in commercial operation",43.063039,-76.01097
66195,"RPNY Solar 6, LLC",67408,Pike Road Solar (NY),Map,Map,NY,Genesee,ISNE,IPP Non-CHP,PIKE,,3,3,3,Solar Photovoltaic,SUN,PV,7,2024,"(TS) Construction complete, but not yet in commercial operation",42.96881,-78.21004
66196,"RPNY Solar 7, LLC",67409,Alexander Road Solar,Map,Map,NY,Genesee,ISNE,IPP Non-CHP,ALEX,,1.6,1.6,1.6,Solar Photovoltaic,SUN,PV,7,2024,"(TS) Construction complete, but not yet in commercial operation",42.973941,-78.20607
66208,"Camco International Group, Inc.",67436,West Point RNG,Map,Map,ID,Gooding,IPCO,IPP Non-CHP,WPRG,,3.2,3.2,3.2,Other Waste Biomass,OBG,IC,7,2024,"(TS) Construction complete, but not yet in commercial operation",42.75,-114.646
66218,"TAI Huntsville Solar, LLC",67488,TAI Huntsville Solar Hybrid,Map,Map,AL,Madison,TVA,IPP Non-CHP,PV1,,30,30,30,Solar Photovoltaic,SUN,PV,7,2024,"(TS) Construction complete, but not yet in commercial operation",34.829551,-86.63035
66229,Walnut Bend Solar Station,67504,Walnut Bend Solar Station PV,Map,Map,AR,Lee,MISO,Electric Utility,WN1,,100,100,100,Solar Photovoltaic,SUN,PV,7,2024,"(TS) Construction complete, but not yet in commercial operation",34.51401,-91.45365
66284,"SV CSG Afton I, LLC",67587,SV CSG AFTON I,Map,Map,MN,Washington,MISO,IPP Non-CHP,SVA,,1,1,1,Solar Photovoltaic,SUN,PV,7,2024,"(V) Under construction, more than 50 percent complete",44.943,-92.857
66285,DSI Don Solar LLC,67588,DSI Don Solar,Map,Map,MN,Renville,MISO,IPP Non-CHP,DSID,,1.00,1.00,1.00,Solar Photovoltaic,SUN,PV,7,2024,"(V) Under construction, more than 50 percent complete",44.805,-95.2056
66335,REV Renewables LLC,67694,Capon Bridge Solar LLC,Map,Map,WV,Hampshire,PJM,IPP Non-CHP,CPS01,,20,20,20,Solar Photovoltaic,SUN,PV,7,2024,"(U) Under construction, less than or equal to 50 percent complete",39.28724,-78.64196
60025,Greenbacker Renewable Energy Corporation,67695,Holtville,Map,Map,CA,Imperial,CISO,IPP Non-CHP,823,,30,30,30,Batteries,MWH,BA,7,2024,"(V) Under construction, more than 50 percent complete",32.813389,-115.3887
55934,City of Stockton MUD,56134,Regional Wastewater Control Facility,Map,Map,CA,San Joaquin,CISO,Commercial CHP,601,,3,3,3,Petroleum Liquids,DFO,IC,8,2024,"(TS) Construction complete, but not yet in commercial operation",37.9369,-121.3294
59656,Desert Quartzite LLC,59871,Desert Quartzite,Map,Map,CA,Riverside,CISO,IPP Non-CHP,GEN01,,300,300,300,Solar Photovoltaic,SUN,PV,8,2024,"(U) Under construction, less than or equal to 50 percent complete",33.565,-114.753
59656,Desert Quartzite LLC,59871,Desert Quartzite,Map,Map,CA,Riverside,CISO,IPP Non-CHP,GEN02,,150,150,150,Batteries,MWH,BA,8,2024,"(U) Under construction, less than or equal to 50 percent complete",33.565,-114.753
63081,Exus North America Management Partners LLC,63342,Bearkat II Wind Energy LLC,Map,Map,TX,Glasscock,ERCO,IPP Non-CHP,BKII,,162.1,162.1,162.1,Onshore Wind Turbine,WND,WT,8,2024,"(TS) Construction complete, but not yet in commercial operation",31.754037,-101.6752
63755,"Old 300 Solar Center, LLC",64133,"Old 300 Solar Center, LLC",Map,Map,TX,Fort Bend,ERCO,IPP Non-CHP,2222,,430,430,430,Solar Photovoltaic,SUN,PV,8,2024,"(TS) Construction complete, but not yet in commercial operation",29.33355,-95.82544
56215,"RWE Renewables Americas, LLC",64202,"Big Star Solar, LLC (Hybrid)",Map,Map,TX,Bastrop,ERCO,IPP Non-CHP,BGSTB,,80,80,80,Batteries,MWH,BA,8,2024,"(V) Under construction, more than 50 percent complete",29.894053,-97.27054
56215,"RWE Renewables Americas, LLC",64202,"Big Star Solar, LLC (Hybrid)",Map,Map,TX,Bastrop,ERCO,IPP Non-CHP,BGSTS,,200,200,200,Solar Photovoltaic,SUN,PV,8,2024,"(V) Under construction, more than 50 percent complete",29.894053,-97.27054
64266,"Blue Jay Solar I, LLC",64672,"Blue Jay Solar I, LLC",Map,Map,TX,Grimes,ERCO,IPP Non-CHP,BLUJS,,210,210,210,Solar Photovoltaic,SUN,PV,8,2024,"(TS) Construction complete, but not yet in commercial operation",30.705329,-96.06983
7140,Georgia Power Co,65018,Mossy Branch Battery Facility,Map,Map,GA,Talbot,SOCO,Electric Utility,BESS,,65,65,65,Batteries,MWH,BA,8,2024,"(V) Under construction, more than 50 percent complete",32.803569,-84.66039
61514,"Agilitas Energy, Inc.",65239,"AE-ESS NWS 1, LLC",Map,Map,NY,Queens,NYIS,IPP Non-CHP,NWS,,5,4.9,4.9,Batteries,MWH,BA,8,2024,"(U) Under construction, less than or equal to 50 percent complete",40.74041,-73.95107
64583,OE_FL7,65292,OE_FL7,Map,Map,FL,Putnam,FPL,IPP Non-CHP,OE_FL,,74.9,74.9,74.9,Solar Photovoltaic,SUN,PV,8,2024,"(U) Under construction, less than or equal to 50 percent complete",29.74118,-81.69886
58468,Dominion Renewable Energy,65317,Springfield Solar,Map,Map,VA,Westmoreland,PJM,Electric Utility,SPRG,,2,2,2,Solar Photovoltaic,SUN,PV,8,2024,"(V) Under construction, more than 50 percent complete",38.093,-76.799
58468,Dominion Renewable Energy,65318,Quillwort Solar,Map,Map,VA,Powhatan,PJM,Electric Utility,POWI,,18,18,18,Solar Photovoltaic,SUN,PV,8,2024,"(V) Under construction, more than 50 percent complete",37.567,-77.9271
64752,"Perendale Holdings, LLC",65426,"Perendale Holdings, LLC",Map,Map,NC,Davie,DUK,IPP Non-CHP,GEN1,,7.5,7.5,7.5,Solar Photovoltaic,SUN,PV,8,2024,"(V) Under construction, more than 50 percent complete",35.985701,-80.54407
62856,"Forefront Power, LLC",65616,CA - Amazon - SMF6,Map,Map,CA,Sacramento,CISO,IPP Non-CHP,20031,,2.6,2.6,2.6,Solar Photovoltaic,SUN,PV,8,2024,"(U) Under construction, less than or equal to 50 percent complete",38.75,-121.55
63289,Key Capture Energy,65698,TX15 Limousin Oak Storage,Map,Map,TX,Grimes,ERCO,IPP Non-CHP,TX15,,100,100,100,Batteries,MWH,BA,8,2024,"(TS) Construction complete, but not yet in commercial operation",30.65991,-95.9738
65011,"El Sauz Ranch Wind, LLC",65760,"El Sauz Ranch Wind, LLC",Map,Map,TX,Willacy,ERCO,IPP Non-CHP,ELSAU,,301,301,301,Onshore Wind Turbine,WND,WT,8,2024,"(V) Under construction, more than 50 percent complete",26.500883,-97.59906
65016,"High River Energy Center, LLC",65765,"High River Energy Center, LLC",Map,Map,NY,Montgomery,NYIS,IPP Non-CHP,HR01,,90,90,90,Solar Photovoltaic,SUN,PV,8,2024,"(V) Under construction, more than 50 percent complete",42.901856,-74.13273
65097,"Gans Solar, LLC",65902,Gans Solar,Map,Map,PA,Fayette,PJM,IPP Non-CHP,5,,14,14,14,Solar Photovoltaic,SUN,PV,8,2024,"(P) Planned for installation, but regulatory approvals not initiated",39.750126,-79.8358
65098,"Pechin Solar, LLC",65903,Pechin Solar,Map,Map,PA,Fayette,PJM,IPP Non-CHP,9,,14,14,14,Solar Photovoltaic,SUN,PV,8,2024,"(P) Planned for installation, but regulatory approvals not initiated",39.96106,-79.64394
65099,"Porter Solar, LLC",65937,"Porter Solar, LLC (TX)",Map,Map,TX,Denton,ERCO,IPP Non-CHP,PORTR,,245,245,245,Solar Photovoltaic,SUN,PV,8,2024,"(TS) Construction complete, but not yet in commercial operation",33.310446,-97.36977
61944,MN8 Energy LLC,65959,WMATA - Cheverly Metro,Map,Map,MD,Prince Georges,PJM,IPP Non-CHP,GEN1,,1.9,1.9,1.9,Solar Photovoltaic,SUN,PV,8,2024,"(V) Under construction, more than 50 percent complete",38.915643,-76.91737
60970,SunShare Management,66070,Buffalo Sun CSG,Map,Map,MN,McLeod,MISO,IPP Non-CHP,BUFFS,,1,1,1,Solar Photovoltaic,SUN,PV,8,2024,"(V) Under construction, more than 50 percent complete",44.799686,-94.01997
65281,"Horus Louisiana 1, LLC",66111,Elizabeth Solar Plant,Map,Map,LA,Allen,MISO,IPP Non-CHP,US199,,142.8,125,125,Solar Photovoltaic,SUN,PV,8,2024,"(V) Under construction, more than 50 percent complete",30.81981,-92.97176
65282,Prairie Switch Wind LLC,66123,Prairie Switch Wind LLC,Map,Map,TX,Wharton,ERCO,IPP Non-CHP,PSW1,,163.2,163.2,163.2,Onshore Wind Turbine,WND,WT,8,2024,"(U) Under construction, less than or equal to 50 percent complete",29.0919,-96.09
65347,"Pearl River Solar Park, LLC",66239,Pearl River Solar Park LLC,Map,Map,MS,Scott,MISO,IPP Non-CHP,GEN01,,175,175,175,Solar Photovoltaic,SUN,PV,8,2024,"(TS) Construction complete, but not yet in commercial operation",32.550998,-89.73014
65405,Woodruff County Solar,66282,Woodruff County Solar,Map,Map,AR,Woodruff,MISO,IPP Non-CHP,PV1,,122,122,122,Solar Photovoltaic,SUN,PV,8,2024,"(TS) Construction complete, but not yet in commercial operation",35.256256,-91.34019
9191,Idaho Power Co,66325,Hemmingway BESS,Map,Map,ID,Owyhee,IPCO,Electric Utility,HGWP2,,36,36,36,Batteries,MWH,BA,8,2024,"(U) Under construction, less than or equal to 50 percent complete",43.35151,-116.6621
65428,Callisto I Energy Center,66338,Callisto I Energy Center,Map,Map,TX,Harris,ERCO,IPP Non-CHP,CALL1,,101.6,100,100,Batteries,MWH,BA,8,2024,"(U) Under construction, less than or equal to 50 percent complete",29.646811,-95.45054
64994,SolRiver Capital LLC,66349,Green Solar LLC (CSG),Map,Map,OR,Jefferson,BPAT,IPP Non-CHP,PV1,,2.9,2.9,2.9,Solar Photovoltaic,SUN,PV,8,2024,"(TS) Construction complete, but not yet in commercial operation",44.487289,-121.2497
65451,Grizzly Ridge Solar LLC,66410,Grizzly Ridge Solar,Map,Map,TX,Hamilton,ERCO,Commercial Non-CHP,596,,10,10,10,Batteries,MWH,BA,8,2024,"(P) Planned for installation, but regulatory approvals not initiated",31.738177,-98.21374
64904,AES Clean Energy,66449,Northline Solar,Map,Map,NY,Rensselaer,NYIS,IPP Non-CHP,NORTH,,4,4,4,Solar Photovoltaic,SUN,PV,8,2024,"(V) Under construction, more than 50 percent complete",42.8691,-73.6153
65552,Terra-Gen Operating Co-BESS 2,66461,Beaumont BESS,Map,Map,CA,Riverside,CISO,IPP Non-CHP,GEN1,,116.6,100,100,Batteries,MWH,BA,8,2024,"(V) Under construction, more than 50 percent complete",33.92444,-116.9876
65550,"Nova Power, LLC",66494,Menifee Power Bank,Map,Map,CA,Riverside,CISO,IPP Non-CHP,NOVA3,,50,50,50,Batteries,MWH,BA,8,2024,"(V) Under construction, more than 50 percent complete",33.739005,-117.1698
65592,"Moonshot Solar, LLC",66544,Moonshot,Map,Map,MS,Hancock,SOCO,IPP Non-CHP,PGRMS,,78.5,78.5,78.5,Solar Photovoltaic,SUN,PV,8,2024,"(V) Under construction, more than 50 percent complete",30.437172,-89.5029
65626,"San Juan Solar I, LLC",66574,San Juan Solar I,Map,Map,NM,San Juan,PNM,IPP Non-CHP,SANS,,200,200,200,Solar Photovoltaic,SUN,PV,8,2024,"(V) Under construction, more than 50 percent complete",36.842533,-108.3514
65626,"San Juan Solar I, LLC",66574,San Juan Solar I,Map,Map,NM,San Juan,PNM,IPP Non-CHP,SJSS,,100,100,100,Batteries,MWH,BA,8,2024,"(V) Under construction, more than 50 percent complete",36.842533,-108.3514
17539,"Dominion Energy South Carolina, Inc",66600,Bushy Park Combustion Turbine Facility,Map,Map,SC,Berkeley,SCEG,Electric Utility,CT1,,65.4,40.3,56.7,Natural Gas Fired Combustion Turbine,NG,GT,8,2024,"(U) Under construction, less than or equal to 50 percent complete",33.014915,-79.93005
60025,Greenbacker Renewable Energy Corporation,66603,IGS OXR1,Map,Map,CA,Ventura,CISO,IPP Non-CHP,454,,4.8,4.8,4.8,Solar Photovoltaic,SUN,PV,8,2024,"(V) Under construction, more than 50 percent complete",34.212521,-119.1297
65641,"EnLink Processing Services, LLC",66615,Eunice LA Plant,Map,Map,LA,Acadia,MISO,Industrial Non-CHP,STG01,,4.7,4.6,4.6,Natural Gas Steam Turbine,NG,ST,8,2024,"(V) Under construction, more than 50 percent complete",30.461,-92.532
65646,"AFTW Storage, LLC",66619,"AFTW Storage, LLC",Map,Map,CA,Kern,CISO,IPP Non-CHP,AFTW,,1.2,1.2,1.2,Batteries,MWH,BA,8,2024,"(V) Under construction, more than 50 percent complete",35.095124,-119.0659
65648,"Prairie Mist Solar Project, LLC",66625,Prairie Mist Solar,Map,Map,AR,Ashley,MISO,IPP Non-CHP,78661,,109.2,100,100,Solar Photovoltaic,SUN,PV,8,2024,"(V) Under construction, more than 50 percent complete",33.255423,-91.66895
65654,Birch Creek Development,66632,"Kimmel Road Solar, LLC",Map,Map,IL,Perry,MISO,IPP Non-CHP,PV,,50,50,50,Solar Photovoltaic,SUN,PV,8,2024,"(U) Under construction, less than or equal to 50 percent complete",38.050106,-89.21268
65660,Enchanted Rock,66638,Enchanted Rock Lodi,Map,Map,CA,San Joaquin,CISO,IPP Non-CHP,LODI,,48,48,48,Natural Gas Internal Combustion Engine,NG,IC,8,2024,"(V) Under construction, more than 50 percent complete",38.147724,-121.2997
65685,"Tumbleweed Energy Storage, LLC",66666,Tumbleweed Energy Storage,Map,Map,CA,Kern,CISO,IPP Non-CHP,TWES2,,75,75,75,Batteries,MWH,BA,8,2024,"(TS) Construction complete, but not yet in commercial operation",34.83427,-118.339
65677,Dimension Energy LLC,66679,Tulare CSG LLC,Map,Map,CA,Tulare,CISO,IPP Non-CHP,TULAR,,3,3,3,Solar Photovoltaic,SUN,PV,8,2024,"(V) Under construction, more than 50 percent complete",35.98738,-119.4804
65694,"Bright Arrow Solar, LLC",66688,"Bright Arrow Solar, LLC",Map,Map,TX,Hopkins,ERCO,IPP Non-CHP,BASS,,300,300,300,Solar Photovoltaic,SUN,PV,8,2024,"(V) Under construction, more than 50 percent complete",33.22392,-95.73077
65700,Atrisco Energy Storage LLC,66694,Atrisco Energy Storage,Map,Map,NM,Bernalillo,PNM,IPP Non-CHP,ATRES,,300,300,300,Solar Photovoltaic,SUN,PV,8,2024,"(V) Under construction, more than 50 percent complete",35.197003,-106.9125
60025,Greenbacker Renewable Energy Corporation,66735,Kosa,Map,Map,NY,Allegany,NYIS,IPP Non-CHP,783,,1.5,1.5,1.5,Solar Photovoltaic,SUN,PV,8,2024,"(V) Under construction, more than 50 percent complete",42.068818,-77.80742
65076,"HEN Infrastructure, L.L.C.",66792,Falfurrias BESS,Map,Map,TX,Brooks,ERCO,IPP Non-CHP,FALFU,,9.9,9.9,9.9,Batteries,MWH,BA,8,2024,"(V) Under construction, more than 50 percent complete",27.242427,-98.14055
65076,"HEN Infrastructure, L.L.C.",66795,CISCO BESS,Map,Map,TX,Eastland,ERCO,IPP Non-CHP,CISCO,,9.9,9.9,9.9,Batteries,MWH,BA,8,2024,"(V) Under construction, more than 50 percent complete",32.391533,-98.97816
65774,"Fence Post Solar Project, LLC",66801,"Fence Post Solar Hybrid Project, LLC",Map,Map,TX,Navarro,ERCO,IPP Non-CHP,FNCBE,,72,72,72,Batteries,MWH,BA,8,2024,"(TS) Construction complete, but not yet in commercial operation",32.072844,-96.22393
65774,"Fence Post Solar Project, LLC",66801,"Fence Post Solar Hybrid Project, LLC",Map,Map,TX,Navarro,ERCO,IPP Non-CHP,FNCPT,,236,236,236,Solar Photovoltaic,SUN,PV,8,2024,"(TS) Construction complete, but not yet in commercial operation",32.072844,-96.22393
65780,"Clearwater Wind III, LLC",66811,Clearwater Wind III,Map,Map,MT,Rosebud,AVA,IPP Non-CHP,CW3,,100,100,100,Onshore Wind Turbine,WND,WT,8,2024,"(V) Under construction, more than 50 percent complete",46.818828,-106.1946
65782,Ben Milam Solar 3 LLC,66821,Orion III Solar Project,Map,Map,TX,Milam,ERCO,IPP Non-CHP,ORN3,,250,250,250,Solar Photovoltaic,SUN,PV,8,2024,"(TS) Construction complete, but not yet in commercial operation",30.960219,-97.12452
64872,"Distributed Solar Development, LLC",66830,Harrah's Atlantic City - POI 1 (Meeting Center and Valet Garage),Map,Map,NJ,Atlantic,PJM,IPP Non-CHP,P5376,,2.3,2.3,2.3,Solar Photovoltaic,SUN,PV,8,2024,"(U) Under construction, less than or equal to 50 percent complete",39.384389,-74.42627
65788,Ben Milam Solar 1 LLC,66859,Orion I Solar Project,Map,Map,TX,Milam,ERCO,IPP Non-CHP,ORN1,,200,200,200,Solar Photovoltaic,SUN,PV,8,2024,"(V) Under construction, more than 50 percent complete",30.996511,-97.00151
12796,Monongahela Power Co,66900,Rivesville Solar,Map,Map,WV,Marion,PJM,Electric Utility,RIVS,,5.5,5.5,5.5,Solar Photovoltaic,SUN,PV,8,2024,"(V) Under construction, more than 50 percent complete",39.539042,-80.0944
65823,"Myrtle Solar, LLC",66910,"Myrtle Solar, LLC",Map,Map,TX,Brazoria,ERCO,IPP Non-CHP,MYR,,313,313,313,Solar Photovoltaic,SUN,PV,8,2024,"(TS) Construction complete, but not yet in commercial operation",29.228486,-95.42744
65830,"Myrtle Storage, LLC",66913,Myrtle Storage,Map,Map,TX,Brazoria,ERCO,IPP Non-CHP,MYRST,,150,150,150,Batteries,MWH,BA,8,2024,"(TS) Construction complete, but not yet in commercial operation",29.227753,-95.42806
65831,"Danish Fields Solar, LLC",66914,"Danish Fields Solar, LLC",Map,Map,TX,Wharton,ERCO,IPP Non-CHP,DAN,,600,600,600,Solar Photovoltaic,SUN,PV,8,2024,"(TS) Construction complete, but not yet in commercial operation",29.013637,-96.22054
65832,"Cottonwood Bayou Solar, LLC",66915,Cottonwood Bayou Solar,Map,Map,TX,Brazoria,ERCO,IPP Non-CHP,CTW,,350,350,350,Solar Photovoltaic,SUN,PV,8,2024,"(TS) Construction complete, but not yet in commercial operation",29.263123,-95.258
65833,"Danish Fields Storage, LLC",66916,Danish Fields Storage,Map,Map,TX,Wharton,ERCO,IPP Non-CHP,DANST,,150,150,150,Batteries,MWH,BA,8,2024,"(TS) Construction complete, but not yet in commercial operation",29.013637,-96.22054
66225,TRITEC Americas,66948,"VS BC Pacific Gateway, LLC",Map,Map,CA,Los Angeles,CISO,IPP Non-CHP,VSPRC,,1.4,1.3,1.3,Solar Photovoltaic,SUN,PV,8,2024,"(TS) Construction complete, but not yet in commercial operation",33.85324,-118.2968
65857,Prescott Wind Energy LLC,66952,Prescott Wind Farm,Map,Map,IA,Adams,MISO,IPP Non-CHP,PWE,,56,56,56,Onshore Wind Turbine,WND,WT,8,2024,"(U) Under construction, less than or equal to 50 percent complete",41.121034,-94.60513
65934,"River Fork Solar, LLC",67008,"River Fork Solar, LLC",Map,Map,MI,Calhoun,MISO,IPP Non-CHP,RFSLR,,149,149,149,Solar Photovoltaic,SUN,PV,8,2024,"(TS) Construction complete, but not yet in commercial operation",42.281313,-84.75561
61944,MN8 Energy LLC,67015,Dynamic - Exeter Solar,Map,Map,ME,Penobscot,ISNE,IPP Non-CHP,GEN1,,4,4,4,Solar Photovoltaic,SUN,PV,8,2024,"(U) Under construction, less than or equal to 50 percent complete",44.975721,-69.0904
65952,"Henry Gibson Solar, LLC",67029,Henry Gibson Solar,Map,Map,NC,Scotland,DUK,IPP Non-CHP,HGS,,5,5,5,Solar Photovoltaic,SUN,PV,8,2024,"(TS) Construction complete, but not yet in commercial operation",34.780905,-79.56957
13683,North Carolina El Member Corp,67041,McLauchin,Map,Map,NC,Onslow,CPLE,Electric Utility,BAT1,,15,15,15,Batteries,MWH,BA,8,2024,"(U) Under construction, less than or equal to 50 percent complete",34.996432,-79.10712
13683,North Carolina El Member Corp,67042,Butler,Map,Map,NC,Cumberland,CPLE,Electric Utility,BAT1,,10,10,10,Batteries,MWH,BA,8,2024,"(U) Under construction, less than or equal to 50 percent complete",34.898072,-78.89897
13683,North Carolina El Member Corp,67043,Double Creek,Map,Map,NC,Stokes,CPLE,Electric Utility,BAT1,,5,5,5,Batteries,MWH,BA,8,2024,"(U) Under construction, less than or equal to 50 percent complete",36.413913,-80.41
65984,"Longbow BESS, LLC",67083,"Longbow BESS, LLC",Map,Map,TX,Brazoria,ERCO,IPP Non-CHP,LBBES,,174,174,174,Batteries,MWH,BA,8,2024,"(U) Under construction, less than or equal to 50 percent complete",29.281605,-95.29553
66003,Reactivate,67107,"Monee Solar 1, LLC",Map,Map,IL,Will,PJM,IPP Non-CHP,GEN1,,2,2,2,Solar Photovoltaic,SUN,PV,8,2024,"(V) Under construction, more than 50 percent complete",41.383165,-87.7751
66003,Reactivate,67108,"Mulberry Solar, LLC",Map,Map,IL,Madison,PJM,IPP Non-CHP,GEN1,,2,2,2,Solar Photovoltaic,SUN,PV,8,2024,"(V) Under construction, more than 50 percent complete",38.729,-90.135
60025,Greenbacker Renewable Energy Corporation,67156,Pine Hill Westport,Map,Map,MA,Bristol,ISNE,IPP Non-CHP,702,,3.3,3.3,3.3,Solar Photovoltaic,SUN,PV,8,2024,"(V) Under construction, more than 50 percent complete",41.605142,-71.04409
65874,"Liberty County Solar Project, LLC",67159,Liberty County Solar Project,Map,Map,TX,Liberty,MISO,IPP Non-CHP,LIBCO,,109.9,100,100,Solar Photovoltaic,SUN,PV,8,2024,"(V) Under construction, more than 50 percent complete",29.95888,-94.85048
66068,Holden BESS 1 LLC,67186,Holden BESS 1,Map,Map,MA,Worcester,ISNE,IPP Non-CHP,90913,,5,5,5,Batteries,MWH,BA,8,2024,"(V) Under construction, more than 50 percent complete",42.338797,-71.83864
66120,McCormick NY CSG LLC,67248,McCormick NY CSG LLC,Map,Map,NY,Allegany,NYIS,IPP Non-CHP,MCCOR,,5,5,5,Solar Photovoltaic,SUN,PV,8,2024,"(TS) Construction complete, but not yet in commercial operation",42.153,-77.806
66131,"Surbrook Solar, LLC",67267,"Surbrook Solar, LLC",Map,Map,MI,Jackson,MISO,IPP Non-CHP,SUR10,,20,20,20,Solar Photovoltaic,SUN,PV,8,2024,"(TS) Construction complete, but not yet in commercial operation",42.3881,-84.4902
66144,"Camino Ramon BR 2600 Solar Project 2020, LLC",67278,Bishop Ranch - BR 2600,Map,Map,CA,Contra Costa,CISO,IPP Non-CHP,4146B,,1.1,1.1,1.1,Batteries,MWH,BA,8,2024,"(U) Under construction, less than or equal to 50 percent complete",37.766308,-121.9617
66144,"Camino Ramon BR 2600 Solar Project 2020, LLC",67278,Bishop Ranch - BR 2600,Map,Map,CA,Contra Costa,CISO,IPP Non-CHP,4146C,,0.5,0.5,0.5,Solar Photovoltaic,SUN,PV,8,2024,"(U) Under construction, less than or equal to 50 percent complete",37.766308,-121.9617
66144,"Camino Ramon BR 2600 Solar Project 2020, LLC",67278,Bishop Ranch - BR 2600,Map,Map,CA,Contra Costa,CISO,IPP Non-CHP,4147R,,1.2,1.2,1.2,Solar Photovoltaic,SUN,PV,8,2024,"(U) Under construction, less than or equal to 50 percent complete",37.766308,-121.9617
49893,Invenergy Services LLC,67321,Yuma Solar + Storage,Map,Map,AZ,Yuma,AZPS,IPP Non-CHP,PV1,,70,70,70,Solar Photovoltaic,SUN,PV,8,2024,(T) Regulatory approvals received. Not under construction,32.642434,-114.4292
64904,AES Clean Energy,67323,High Mesa CO,Map,Map,CO,Garfield,PSCO,IPP Non-CHP,HMESS,,11.2,10,10,Batteries,MWH,BA,8,2024,"(V) Under construction, more than 50 percent complete",39.3959,-108.0733
64904,AES Clean Energy,67323,High Mesa CO,Map,Map,CO,Garfield,PSCO,IPP Non-CHP,HMSCO,,11.2,10,10,Solar Photovoltaic,SUN,PV,8,2024,"(V) Under construction, more than 50 percent complete",39.3959,-108.0733
60970,SunShare Management,67361,Dove Solar CSG,Map,Map,CO,Weld,PSCO,IPP Non-CHP,DOVES,,5,5,5,Solar Photovoltaic,SUN,PV,8,2024,"(V) Under construction, more than 50 percent complete",40.318,-104.8914
61227,Nautilus Solar Solutions,67427,BNRG Masardis,Map,Map,ME,Androscoggin,ISNE,IPP Non-CHP,SC,,5,5,5,Solar Photovoltaic,SUN,PV,8,2024,"(U) Under construction, less than or equal to 50 percent complete",46.53099,-68.33932
61227,Nautilus Solar Solutions,67499,Brewer,Map,Map,ME,Penobscot,ISNE,IPP Non-CHP,SC,,5,5,5,Solar Photovoltaic,SUN,PV,8,2024,"(U) Under construction, less than or equal to 50 percent complete",44.7977,-68.7146
65173,United States Solar Corporation,67547,USS Rosewood Solar LLC,Map,Map,MN,Chippewa,MISO,IPP Non-CHP,USRSW,,1,1,1,Solar Photovoltaic,SUN,PV,8,2024,"(V) Under construction, more than 50 percent complete",44.974692,-95.71466
65173,United States Solar Corporation,67548,USS Slayton Solar LLC,Map,Map,MN,Murray,MISO,IPP Non-CHP,USSLY,,1,1,1,Solar Photovoltaic,SUN,PV,8,2024,"(V) Under construction, more than 50 percent complete",43.981733,-95.76578
64516,"Azimuth 180 Solar Electric, LLC",67583,DC Water,Map,Map,DC,District of Columbia,PJM,IPP Non-CHP,DCWAT,,1.3,1.3,1.3,Solar Photovoltaic,SUN,PV,8,2024,"(V) Under construction, more than 50 percent complete",38.91,-76.99
61194,Generate Capital,67628,Trinity Freeport,Map,Map,IL,Stephenson,PJM,IPP Non-CHP,11057,,2,2,2,Solar Photovoltaic,SUN,PV,8,2024,"(V) Under construction, more than 50 percent complete",42.274477,-89.56024
61060,Cypress Creek Renewables,67632,Acer,Map,Map,NY,St Lawrence,NYIS,IPP Non-CHP,ACER,,4.3,4.3,4.3,Solar Photovoltaic,SUN,PV,8,2024,(T) Regulatory approvals received. Not under construction,44.756501,-75.1604
61060,Cypress Creek Renewables,67633,Breezewood,Map,Map,IL,McLean,MISO,IPP Non-CHP,BREEZ,,2,2,2,Solar Photovoltaic,SUN,PV,8,2024,(T) Regulatory approvals received. Not under construction,40.438673,-88.99117
61060,Cypress Creek Renewables,67638,Grass River,Map,Map,NY,St Lawrence,NYIS,IPP Non-CHP,GRASS,,4.1,4.1,4.1,Solar Photovoltaic,SUN,PV,8,2024,(T) Regulatory approvals received. Not under construction,44.623428,-75.20335
61060,Cypress Creek Renewables,67642,Skyline,Map,Map,IL,Christian,MISO,IPP Non-CHP,SKYLN,,5,5,5,Solar Photovoltaic,SUN,PV,8,2024,(T) Regulatory approvals received. Not under construction,39.563746,-89.27005
66303,PFMD LL Jessup LLC,67670,MD JESSUP 7950 OCEANO AVE,Map,Map,MD,Howard,PJM,IPP Non-CHP,22337,,1.5,1.5,1.5,Solar Photovoltaic,SUN,PV,8,2024,"(V) Under construction, more than 50 percent complete",39.157496,-76.78725
65535,SunVest Solar LLC,67687,SV CSG German Valley 1 LLC,Map,Map,IL,Stephenson,PJM,IPP Non-CHP,GEVA1,,2,2,2,Solar Photovoltaic,SUN,PV,8,2024,"(TS) Construction complete, but not yet in commercial operation",42.215173,-89.48113
66343,"Catalyze Rochelle Wiscold Drive Microgrid, LLC",67714,IL Rochelle 975 S. Caron Rd,Map,Map,IL,Ogle,PJM,IPP Non-CHP,19578,,1.5,1.5,1.5,Solar Photovoltaic,SUN,PV,8,2024,"(P) Planned for installation, but regulatory approvals not initiated",41.909729,-89.04429
66338,Al Pastor BESS LLC,67721,Al Pastor Battery Storage Plant,Map,Map,TX,Lubbock,ERCO,IPP Non-CHP,ALPTR,,100.8,100.8,100.8,Batteries,MWH,BA,8,2024,"(TS) Construction complete, but not yet in commercial operation",32.7171,-101.9378
1148,City of Baldwin City- (KS),8020,Baldwin City Plant No 2,Map,Map,KS,Douglas,SWPP,Electric Utility,10,,2.2,2,2,Petroleum Liquids,DFO,IC,9,2024,"(V) Under construction, more than 50 percent complete",38.764905,-95.19201
1148,City of Baldwin City- (KS),8020,Baldwin City Plant No 2,Map,Map,KS,Douglas,SWPP,Electric Utility,9,,2.2,2,2,Petroleum Liquids,DFO,IC,9,2024,"(V) Under construction, more than 50 percent complete",38.764905,-95.19201
64843,"Dakota County, MN",50328,Byllesby,Map,Map,MN,Dakota,MISO,Electric Utility,NOR-1,,2,2,2,Conventional Hydroelectric,WAT,HY,9,2024,"(V) Under construction, more than 50 percent complete",44.5119,-92.9394
64843,"Dakota County, MN",50328,Byllesby,Map,Map,MN,Dakota,MISO,Electric Utility,SOU-2,,2,2,2,Conventional Hydroelectric,WAT,HY,9,2024,"(V) Under construction, more than 50 percent complete",44.5119,-92.9394
34359,Curators of the University of Missouri,50969,MU Combined Heat and Power Plant,Map,Map,MO,Boone,MISO,Commercial CHP,GEN10,,9,8,8,Natural Gas Steam Turbine,NG,ST,9,2024,"(V) Under construction, more than 50 percent complete",38.9461,-92.3328
12320,Merck & Co Inc,52148,Elkton,Map,Map,VA,Rockingham,PJM,Industrial CHP,GEN8,,2,2,2,Natural Gas Internal Combustion Engine,NG,IC,9,2024,"(V) Under construction, more than 50 percent complete",38.3836,-78.6528
12303,Merck & Co Inc-West Point,52149,West Point (PA),Map,Map,PA,Montgomery,PJM,Industrial CHP,GEN20,,2,2,2,Natural Gas Internal Combustion Engine,NG,IC,9,2024,"(V) Under construction, more than 50 percent complete",40.217963,-75.29882
13491,New York University,54808,New York University Central Plant,Map,Map,NY,New York,NYIS,Commercial CHP,DE1,,2.5,2.5,2.5,Petroleum Liquids,DFO,IC,9,2024,"(V) Under construction, more than 50 percent complete",40.7899,-73.9233
13491,New York University,54808,New York University Central Plant,Map,Map,NY,New York,NYIS,Commercial CHP,GR1,,2.6,2.6,2.6,Natural Gas Internal Combustion Engine,NG,IC,9,2024,"(V) Under construction, more than 50 percent complete",40.7899,-73.9233
5347,Dow Chemical Co,55419,Plaquemine Cogeneration Plant,Map,Map,LA,Iberville,MISO,Industrial CHP,ST6,,48.9,48.9,48.9,Natural Gas Fired Combined Cycle,NG,CA,9,2024,"(V) Under construction, more than 50 percent complete",30.3217,-91.2347
5347,Dow Chemical Co,55419,Plaquemine Cogeneration Plant,Map,Map,LA,Iberville,MISO,Industrial CHP,ST7,,48.9,48.9,48.9,Natural Gas Fired Combined Cycle,NG,CA,9,2024,"(V) Under construction, more than 50 percent complete",30.3217,-91.2347
49896,"Nevada Gold Energy, LLC",56224,TS Power Plant,Map,Map,NV,Eureka,NEVP,IPP Non-CHP,SOL2,,100,100,100,Solar Photovoltaic,SUN,PV,9,2024,"(V) Under construction, more than 50 percent complete",40.7461,-116.5297
60797,68SF 8me LLC,61168,"Eland Solar & Storage Center, Phase 1 Hybrid",Map,Map,CA,Kern,LDWP,IPP Non-CHP,61168,,150,150,150,Batteries,MWH,BA,9,2024,"(U) Under construction, less than or equal to 50 percent complete",35.2237,-117.977
60797,68SF 8me LLC,61168,"Eland Solar & Storage Center, Phase 1 Hybrid",Map,Map,CA,Kern,LDWP,IPP Non-CHP,68SF8,,200,200,200,Solar Photovoltaic,SUN,PV,9,2024,"(U) Under construction, less than or equal to 50 percent complete",35.2237,-117.977
49893,Invenergy Services LLC,63028,Tip Top Solar Energy Center LLC,Map,Map,NM,Lea,SWPP,IPP Non-CHP,GEN1,,220,220,220,Solar Photovoltaic,SUN,PV,9,2024,"(P) Planned for installation, but regulatory approvals not initiated",32.133136,-103.3235
63109,"Hales Mills Solar, LLC",63339,"Hales Mills Solar, LLC",Map,Map,NY,Fulton,NYIS,IPP Non-CHP,9751,,3,3,3,Batteries,MWH,BA,9,2024,"(V) Under construction, more than 50 percent complete",43.01827,-74.32918
63331,"Organic Energy Solutions, Inc.",63622,OES Biogas Power,Map,Map,CA,San Bernardino,CISO,IPP CHP,OES01,,1.3,1.3,1.3,Other Waste Biomass,OBG,IC,9,2024,"(TS) Construction complete, but not yet in commercial operation",34.17325,-117.3464
63331,"Organic Energy Solutions, Inc.",63622,OES Biogas Power,Map,Map,CA,San Bernardino,CISO,IPP CHP,OES02,,1.3,1.3,1.3,Other Waste Biomass,OBG,IC,9,2024,"(TS) Construction complete, but not yet in commercial operation",34.17325,-117.3464
63968,"Mockingbird Solar Center, LLC",64347,Mockingbird Solar Center,Map,Map,TX,Lamar,ERCO,IPP Non-CHP,7777,,471,471,471,Solar Photovoltaic,SUN,PV,9,2024,"(V) Under construction, more than 50 percent complete",33.39167,-95.42519
49805,Kennecott Utah Copper,64427,Copperton Solar Plant No. 1,Map,Map,UT,Salt Lake,PACE,Industrial Non-CHP,CSP1,,5,2.3,0.9,Solar Photovoltaic,SUN,PV,9,2024,"(V) Under construction, more than 50 percent complete",40.57664,-112.0846
56201,Engie North America,64531,Noosa Energy Storage LLC,Map,Map,CA,San Joaquin,CISO,IPP Non-CHP,KOV4A,,99,99,99,Batteries,MWH,BA,9,2024,"(U) Under construction, less than or equal to 50 percent complete",37.756292,-121.1481
64438,"Enel Green Power Roseland Solar, LLC",65028,"Roseland Solar Project, LLC",Map,Map,TX,Falls,ERCO,IPP Non-CHP,ROSES,,500,500,500,Solar Photovoltaic,SUN,PV,9,2024,"(TS) Construction complete, but not yet in commercial operation",31.459835,-96.82493
58468,Dominion Renewable Energy,65128,Atlanta Farms Solar,Map,Map,OH,Pickaway,PJM,IPP Non-CHP,43164,,199.6,199.6,199.6,Solar Photovoltaic,SUN,PV,9,2024,"(V) Under construction, more than 50 percent complete",39.56,-83.176
13683,North Carolina El Member Corp,65240,Maysville BESS,Map,Map,NC,Jones,CPLE,Electric Utility,BAT1,,5,5,5,Batteries,MWH,BA,9,2024,"(V) Under construction, more than 50 percent complete",34.851782,-77.18158
13683,North Carolina El Member Corp,65241,McKinney BESS,Map,Map,NC,Richmond,CPLE,Electric Utility,BAT1,,5,5,5,Batteries,MWH,BA,9,2024,"(TS) Construction complete, but not yet in commercial operation",34.905833,-79.75702
13683,North Carolina El Member Corp,65243,New Rosewood BESS,Map,Map,NC,Wayne,CPLE,Electric Utility,BAT1,,2.5,2.5,2.5,Batteries,MWH,BA,9,2024,"(TS) Construction complete, but not yet in commercial operation",35.436188,-78.10965
13683,North Carolina El Member Corp,65244,Queens Creek BESS,Map,Map,NC,Onslow,CPLE,Electric Utility,BAT1,,2.5,2.5,2.5,Batteries,MWH,BA,9,2024,"(TS) Construction complete, but not yet in commercial operation",34.672452,-77.18804
13683,North Carolina El Member Corp,65245,Rocky Point BESS,Map,Map,NC,Pender,CPLE,Electric Utility,BAT1,,5,5,5,Batteries,MWH,BA,9,2024,"(TS) Construction complete, but not yet in commercial operation",34.475294,-77.82995
13683,North Carolina El Member Corp,65246,Walkers Crossroads BESS,Map,Map,NC,Wake,CPLE,Electric Utility,BAT1,,5,5,5,Batteries,MWH,BA,9,2024,"(TS) Construction complete, but not yet in commercial operation",35.925227,-78.50515
13683,North Carolina El Member Corp,65247,Zion Hill BESS,Map,Map,NC,Brunswick,CPLE,Electric Utility,BAT1,,5,5,5,Batteries,MWH,BA,9,2024,"(V) Under construction, more than 50 percent complete",33.993923,-78.22455
13683,North Carolina El Member Corp,65248,Collier BESS,Map,Map,NC,Cumberland,CPLE,Electric Utility,BAT1,,2.5,2.5,2.5,Batteries,MWH,BA,9,2024,"(TS) Construction complete, but not yet in commercial operation",35.204903,-78.89031
13683,North Carolina El Member Corp,65249,Docs Road BESS,Map,Map,NC,Harnett,CPLE,Electric Utility,BAT1,,5,5,5,Batteries,MWH,BA,9,2024,"(TS) Construction complete, but not yet in commercial operation",35.323928,-78.9975
13683,North Carolina El Member Corp,65250,Five Points BESS,Map,Map,NC,Randolph,CPLE,Electric Utility,BAT1,,5,5,5,Batteries,MWH,BA,9,2024,"(TS) Construction complete, but not yet in commercial operation",35.632465,-79.68196
58468,Dominion Renewable Energy,65320,Sebera Solar,Map,Map,VA,Prince George,PJM,Electric Utility,SEBE,,20,20,20,Solar Photovoltaic,SUN,PV,9,2024,"(V) Under construction, more than 50 percent complete",37.25,-77.25
17609,Southern California Edison Co,65456,Separator (Etiwanda) BESS,Map,Map,CA,San Bernardino,CISO,Electric Utility,SEPAR,,112.5,112.5,112.5,Batteries,MWH,BA,9,2024,"(V) Under construction, more than 50 percent complete",34.09211,-117.534
17609,Southern California Edison Co,65457,Cathode (Hinson) BESS,Map,Map,CA,Ventura,CISO,Electric Utility,CATH1,,100,100,100,Batteries,MWH,BA,9,2024,"(V) Under construction, more than 50 percent complete",33.7763,-118.2003
17609,Southern California Edison Co,65457,Cathode (Hinson) BESS,Map,Map,CA,Ventura,CISO,Electric Utility,CATH2,,100,100,100,Batteries,MWH,BA,9,2024,"(V) Under construction, more than 50 percent complete",33.7763,-118.2003
50123,"Leeward Asset Management, LLC",65591,AVEP BESS,Map,Map,CA,Kern,CISO,IPP Non-CHP,AVEPB,,126,126,126,Batteries,MWH,BA,9,2024,"(V) Under construction, more than 50 percent complete",34.878039,-118.347
64946,EDPR CA Solar Park LLC,65663,Sandrini Solar 200,Map,Map,CA,Kern,CISO,IPP Non-CHP,GEN01,,100,100,100,Solar Photovoltaic,SUN,PV,9,2024,"(V) Under construction, more than 50 percent complete",35.1026,-119.0541
63289,Key Capture Energy,65693,TX10 Hummingbird Storage,Map,Map,TX,Denton,ERCO,IPP Non-CHP,TX10,,100,100,100,Batteries,MWH,BA,9,2024,"(TS) Construction complete, but not yet in commercial operation",33.3256,-97.31433
65052,Limestone CSG 1 LLC,65801,Limestone CSG 1 LLC,Map,Map,ME,Aroostook,ISNE,IPP Non-CHP,LMST1,,3.8,1.2,0.6,Solar Photovoltaic,SUN,PV,9,2024,"(TS) Construction complete, but not yet in commercial operation",46.916446,-67.85511
65053,Limestone CSG 2 LLC,65802,Limestone CSG 2 LLC,Map,Map,ME,Aroostook,ISNE,IPP Non-CHP,LMST2,,2.9,1.2,0.6,Solar Photovoltaic,SUN,PV,9,2024,"(TS) Construction complete, but not yet in commercial operation",46.929112,-67.8359
66007,"NY Pulteney I, LLC",65828,Chidsey Hill Road Solar,Map,Map,NY,Steuben,NYIS,IPP Non-CHP,1666,,3,3,3,Solar Photovoltaic,SUN,PV,9,2024,"(U) Under construction, less than or equal to 50 percent complete",42.573062,-77.16598
65118,AlphaStruxure Service Co LP,65945,Brookville Smart Bus Depot Microgrid,Map,Map,MD,Montgomery,PJM,Commercial Non-CHP,GEN2,,0.6,0.6,0.6,Natural Gas Internal Combustion Engine,NG,IC,9,2024,"(TS) Construction complete, but not yet in commercial operation",38.99903,-77.058
65118,AlphaStruxure Service Co LP,65945,Brookville Smart Bus Depot Microgrid,Map,Map,MD,Montgomery,PJM,Commercial Non-CHP,GEN3,,0.6,0.6,0.6,Natural Gas Internal Combustion Engine,NG,IC,9,2024,"(TS) Construction complete, but not yet in commercial operation",38.99903,-77.058
65131,"Mammoth North, LLC",65957,Mammoth North Solar,Map,Map,IN,Starke,PJM,IPP Non-CHP,GEN1,,400,400,400,Solar Photovoltaic,SUN,PV,9,2024,"(V) Under construction, more than 50 percent complete",41.19933,-86.63379
65213,"Wolfskin Solar, LLC",66027,Wolfskin Solar,Map,Map,GA,Oglethorpe,SOCO,IPP Non-CHP,GA-04,,38,38,38,Solar Photovoltaic,SUN,PV,9,2024,"(TS) Construction complete, but not yet in commercial operation",33.881462,-83.24668
60970,SunShare Management,66073,Quarry Sun CSG,Map,Map,MN,Dodge,MISO,IPP Non-CHP,QURYS,,1,1,1,Solar Photovoltaic,SUN,PV,9,2024,"(P) Planned for installation, but regulatory approvals not initiated",44.043674,-92.6952
65392,Riverstart Solar Park III LLC,66269,Riverstart Solar Park III,Map,Map,IN,Randolph,PJM,IPP Non-CHP,RSS03,,100,100,100,Solar Photovoltaic,SUN,PV,9,2024,"(V) Under construction, more than 50 percent complete",40.055556,-85.12663
5248,Dominion Energy Inc.,66316,Madison Solar,Map,Map,VA,Orange,PJM,IPP Non-CHP,MDSO,,62.5,62.5,62.5,Solar Photovoltaic,SUN,PV,9,2024,"(V) Under construction, more than 50 percent complete",38.28775,-77.84005
65444,"Erie Solar, LLC",66365,"Erie Solar, LLC",Map,Map,PA,Erie,PJM,IPP Non-CHP,ERIE,,20,20,20,Solar Photovoltaic,SUN,PV,9,2024,"(V) Under construction, more than 50 percent complete",42.0131,-80.30728
65552,Terra-Gen Operating Co-BESS 2,66462,Placerita ESS,Map,Map,CA,Los Angeles,CISO,IPP Non-CHP,GEN1,,88,80,80,Batteries,MWH,BA,9,2024,"(V) Under construction, more than 50 percent complete",34.41,-118.45
65550,"Nova Power, LLC",66494,Menifee Power Bank,Map,Map,CA,Riverside,CISO,IPP Non-CHP,NOVA4,,110,110,110,Batteries,MWH,BA,9,2024,"(V) Under construction, more than 50 percent complete",33.739005,-117.1698
65556,EnerSmart Chula Vista Sub Station,66505,EnerSmart Chula Vista Sub Station,Map,Map,CA,San Diego,CISO,IPP Non-CHP,CV150,,3,3,3,Batteries,MWH,BA,9,2024,"(TS) Construction complete, but not yet in commercial operation",32.5945,-117.0507
65556,EnerSmart Chula Vista Sub Station,66505,EnerSmart Chula Vista Sub Station,Map,Map,CA,San Diego,CISO,IPP Non-CHP,CV151,,3,3,3,Batteries,MWH,BA,9,2024,"(TS) Construction complete, but not yet in commercial operation",32.5945,-117.0507
65620,Fox Garden LLC,66576,Fox Garden,Map,Map,MN,Waseca,MISO,IPP Non-CHP,MNC07,,0.9,0.9,0.9,Solar Photovoltaic,SUN,PV,9,2024,"(V) Under construction, more than 50 percent complete",43.975105,-93.49155
65618,Pickerel Garden LLC,66578,Pickerel Garden,Map,Map,MN,Sherburne,MISO,IPP Non-CHP,MNC03,,0.9,0.9,0.9,Solar Photovoltaic,SUN,PV,9,2024,"(U) Under construction, less than or equal to 50 percent complete",45.4295,-94.0237
66331,"Birch Creek Power, LLC",66633,"Salt Creek Township Solar, LLC",Map,Map,IL,Mason,MISO,IPP Non-CHP,PV,,50,50,50,Solar Photovoltaic,SUN,PV,9,2024,"(U) Under construction, less than or equal to 50 percent complete",40.182668,-89.72027
64904,AES Clean Energy,66637,McFarland B Solar and Storage,Map,Map,AZ,Yuma,CISO,IPP Non-CHP,BESS,,150,150,150,Batteries,MWH,BA,9,2024,"(V) Under construction, more than 50 percent complete",32.957479,-113.476
64904,AES Clean Energy,66637,McFarland B Solar and Storage,Map,Map,AZ,Yuma,CISO,IPP Non-CHP,MCFRB,,300,300,300,Solar Photovoltaic,SUN,PV,9,2024,"(V) Under construction, more than 50 percent complete",32.957479,-113.476
65671,"Martin County Solar Project, LLC",66646,"Martin County Solar Project, LLC",Map,Map,KY,Martin,PJM,IPP Non-CHP,USMTC,,111,111,111,Solar Photovoltaic,SUN,PV,9,2024,"(U) Under construction, less than or equal to 50 percent complete",37.765452,-82.47413
64872,"Distributed Solar Development, LLC",66800,Bishop Ranch - BR 8-P,Map,Map,CA,Contra Costa,CISO,IPP Non-CHP,4976,,1,1,1,Solar Photovoltaic,SUN,PV,9,2024,"(V) Under construction, more than 50 percent complete",37.76819,-121.9666
64872,"Distributed Solar Development, LLC",66800,Bishop Ranch - BR 8-P,Map,Map,CA,Contra Costa,CISO,IPP Non-CHP,4976B,,0.5,0.5,0.5,Batteries,MWH,BA,9,2024,"(V) Under construction, more than 50 percent complete",37.76819,-121.9666
65776,"RPCA Solar 7, LLC",66810,East Cleveland Road Solar,Map,Map,CA,Merced,CISO,IPP Non-CHP,ECLE,,3,3,3,Solar Photovoltaic,SUN,PV,9,2024,"(TS) Construction complete, but not yet in commercial operation",37.124972,-120.4575
65777,Urban Grid Solar,66837,Alton Post Office Solar,Map,Map,VA,Halifax,PJM,IPP Non-CHP,ALPT1,,75.1,82.1,82.1,Solar Photovoltaic,SUN,PV,9,2024,"(V) Under construction, more than 50 percent complete",36.568918,-79.03292
65806,Elk Street Solar LLC,66886,Elk Street Solar,Map,Map,NY,Erie,NYIS,IPP Non-CHP,ES,,2.4,2.4,2.4,Solar Photovoltaic,SUN,PV,9,2024,"(V) Under construction, more than 50 percent complete",42.85,-78.85
64904,AES Clean Energy,66947,Mannys Corners Solar 1 LLC,Map,Map,NY,Montgomery,NYIS,IPP Non-CHP,MANNY,,4.9,4.9,4.9,Solar Photovoltaic,SUN,PV,9,2024,"(TS) Construction complete, but not yet in commercial operation",42.964,-74.1444
65552,Terra-Gen Operating Co-BESS 2,66950,Sagebrush Solar 2 ESS 59,Map,Map,CA,Kern,CISO,IPP Non-CHP,1,,59,59,59,Batteries,MWH,BA,9,2024,"(V) Under construction, more than 50 percent complete",35.0477,-118.2628
65875,"Washington County Solar, LLC",66990,Washington County Solar,Map,Map,GA,Washington,SOCO,IPP Non-CHP,WASH,,150,150,150,Solar Photovoltaic,SUN,PV,9,2024,(T) Regulatory approvals received. Not under construction,32.989939,-82.71381
65932,Greasewood II LLC,67006,Greasewood II LLC,Map,Map,TX,Pecos,ERCO,IPP Non-CHP,TBSP,,306,306,306,Solar Photovoltaic,SUN,PV,9,2024,"(U) Under construction, less than or equal to 50 percent complete",31.10409,-102.6063
61944,MN8 Energy LLC,67011,Dynamic - Wales Leeds Junction Road,Map,Map,ME,Androscoggin,ISNE,IPP Non-CHP,GEN1,,4.5,4.5,4.5,Solar Photovoltaic,SUN,PV,9,2024,"(V) Under construction, more than 50 percent complete",44.199291,-70.068
61944,MN8 Energy LLC,67012,Dynamic - Norridgewock Martin Stream,Map,Map,ME,Somerset,ISNE,IPP Non-CHP,GEN1,,4.9,4.9,4.9,Solar Photovoltaic,SUN,PV,9,2024,"(TS) Construction complete, but not yet in commercial operation",44.694066,-69.787
61944,MN8 Energy LLC,67017,Dynamic - Glenburn Broadway One,Map,Map,ME,Penobscot,ISNE,IPP Non-CHP,GEN1,,4.9,4.9,4.9,Solar Photovoltaic,SUN,PV,9,2024,"(U) Under construction, less than or equal to 50 percent complete",44.875771,-68.851
13683,North Carolina El Member Corp,67036,Davistown-Mercer,Map,Map,NC,Edgecombe,PJM,Electric Utility,BAT1,,2.5,2.5,2.5,Batteries,MWH,BA,9,2024,"(TS) Construction complete, but not yet in commercial operation",35.84423,-77.61267
13683,North Carolina El Member Corp,67037,Medoc,Map,Map,NC,Halifax,PJM,Electric Utility,BAT1,,2.5,2.5,2.5,Batteries,MWH,BA,9,2024,"(U) Under construction, less than or equal to 50 percent complete",36.24805,-77.85024
13683,North Carolina El Member Corp,67040,Archie Horne,Map,Map,NC,Onslow,CPLE,Electric Utility,BAT1,,10,10,10,Batteries,MWH,BA,9,2024,"(U) Under construction, less than or equal to 50 percent complete",34.917699,-77.63126
13683,North Carolina El Member Corp,67044,Fairfield Harbor,Map,Map,NC,Craven,CPLE,Electric Utility,BAT1,,5,5,5,Batteries,MWH,BA,9,2024,"(U) Under construction, less than or equal to 50 percent complete",35.15122,-76.99299
65964,"Montgomery Ranch Wind Farm, LLC",67095,"Montgomery Ranch Wind Farm, LLC",Map,Map,TX,Foard,ERCO,IPP Non-CHP,MR1,,202.5,202.5,202.5,Onshore Wind Turbine,WND,WT,9,2024,"(V) Under construction, more than 50 percent complete",33.841272,-99.65781
18454,Tampa Electric Co,67120,Dover Energy Storage,Map,Map,FL,Hillsborough,TEC,Electric Utility,BESS1,,15,15,15,Batteries,MWH,BA,9,2024,"(V) Under construction, more than 50 percent complete",27.957786,-82.20335
60025,Greenbacker Renewable Energy Corporation,67152,N Baker Road 2,Map,Map,IL,Stephenson,PJM,IPP Non-CHP,680,,2,2,2,Solar Photovoltaic,SUN,PV,9,2024,"(V) Under construction, more than 50 percent complete",42.435916,-89.90473
60025,Greenbacker Renewable Energy Corporation,67153,N Baker Road,Map,Map,IL,Stephenson,PJM,IPP Non-CHP,679,,2,2,2,Solar Photovoltaic,SUN,PV,9,2024,"(V) Under construction, more than 50 percent complete",42.435913,-89.90352
62759,National Grid Renewables,67166,Fayette Solar,Map,Map,OH,Ross,PJM,IPP Non-CHP,FYTSL,,45,45,45,Solar Photovoltaic,SUN,PV,9,2024,"(V) Under construction, more than 50 percent complete",39.383,-83.4
66071,Franklin Solar Idaho,67190,Franklin Solar Hybrid,Map,Map,ID,Twin Falls,IPCO,IPP Non-CHP,FBESS,,100,100,100,Batteries,MWH,BA,9,2024,"(V) Under construction, more than 50 percent complete",42.2042,-114.6099
60025,Greenbacker Renewable Energy Corporation,67198,N Solon Road (South),Map,Map,IL,McHenry,PJM,IPP Non-CHP,678,,2,2,2,Solar Photovoltaic,SUN,PV,9,2024,"(V) Under construction, more than 50 percent complete",42.461344,-88.27943
60025,Greenbacker Renewable Energy Corporation,67199,Morey Road,Map,Map,MI,Missaukee,MISO,IPP Non-CHP,641,,2,2,2,Solar Photovoltaic,SUN,PV,9,2024,"(V) Under construction, more than 50 percent complete",44.273299,-85.20803
60025,Greenbacker Renewable Energy Corporation,67200,Lake City,Map,Map,MI,Missaukee,PJM,IPP Non-CHP,642,,2,2,2,Solar Photovoltaic,SUN,PV,9,2024,"(V) Under construction, more than 50 percent complete",44.289589,-85.21448
4065,City of Columbus - (OH),67264,Jackson Pike WWTP Cogen Engines,Map,Map,OH,Franklin,PJM,Electric Utility,1,,1.4,1.4,1.4,Other Waste Biomass,OBG,IC,9,2024,"(V) Under construction, more than 50 percent complete",39.911247,-83.01651
4065,City of Columbus - (OH),67264,Jackson Pike WWTP Cogen Engines,Map,Map,OH,Franklin,PJM,Electric Utility,2,,1.4,1.4,1.4,Other Waste Biomass,OBG,IC,9,2024,"(V) Under construction, more than 50 percent complete",39.911247,-83.01651
60025,Greenbacker Renewable Energy Corporation,67276,Upland,Map,Map,MA,Plymouth,ISNE,IPP Non-CHP,703,,5,5,5,Solar Photovoltaic,SUN,PV,9,2024,"(V) Under construction, more than 50 percent complete",41.964076,-70.78877
66143,"Alcosta Boulevard BR 15-DD Solar Project 2020, LLC",67277,Bishop Ranch - BR 15-DD,Map,Map,CA,Contra Costa,CISO,IPP Non-CHP,4657B,,0.5,0.5,0.5,Batteries,MWH,BA,9,2024,"(V) Under construction, more than 50 percent complete",37.7729,-121.9595
66143,"Alcosta Boulevard BR 15-DD Solar Project 2020, LLC",67277,Bishop Ranch - BR 15-DD,Map,Map,CA,Contra Costa,CISO,IPP Non-CHP,4657C,,0.4,0.4,0.4,Solar Photovoltaic,SUN,PV,9,2024,"(V) Under construction, more than 50 percent complete",37.7729,-121.9595
66143,"Alcosta Boulevard BR 15-DD Solar Project 2020, LLC",67277,Bishop Ranch - BR 15-DD,Map,Map,CA,Contra Costa,CISO,IPP Non-CHP,4657R,,0.2,0.2,0.2,Solar Photovoltaic,SUN,PV,9,2024,"(V) Under construction, more than 50 percent complete",37.7729,-121.9595
66124,"Dos Palos Clean Power, LLC",67287,Dos Palos Clean Power,Map,Map,CA,Merced,CISO,IPP Non-CHP,DOSP,,3,3,3,Solar Photovoltaic,SUN,PV,9,2024,(T) Regulatory approvals received. Not under construction,37.002643,-120.6382
19499,"United Power, Inc",67302,Frederick Battery Storage,Map,Map,CO,Weld,WACM,Electric Utility,FREBA,,7.8,7.8,7.8,Batteries,MWH,BA,9,2024,"(TS) Construction complete, but not yet in commercial operation",40.10462,-104.9845
66174,"Carvers Creek, LLC",67342,Carvers Creek Solar,Map,Map,VA,Gloucester,PJM,IPP Non-CHP,CARV,,54.9,54.9,54.9,Solar Photovoltaic,SUN,PV,9,2024,"(U) Under construction, less than or equal to 50 percent complete",37.56189,-76.60537
61227,Nautilus Solar Solutions,67403,Altamont (NY),Map,Map,NY,Albany,NYIS,IPP Non-CHP,SC,,2.3,2.3,2.3,Solar Photovoltaic,SUN,PV,9,2024,"(U) Under construction, less than or equal to 50 percent complete",42.678742,-73.94719
64904,AES Clean Energy,67417,Exeter Renewables 1,Map,Map,RI,Washington,ISNE,IPP Non-CHP,EXTR1,,10,10,10,Solar Photovoltaic,SUN,PV,9,2024,"(U) Under construction, less than or equal to 50 percent complete",41.58,-71.523
61227,Nautilus Solar Solutions,67431,BNRG North Anson,Map,Map,ME,Somerset,ISNE,IPP Non-CHP,SC,,2,2,2,Solar Photovoltaic,SUN,PV,9,2024,"(U) Under construction, less than or equal to 50 percent complete",44.851756,-69.91664
61227,Nautilus Solar Solutions,67442,Gowans,Map,Map,NY,Erie,NYIS,IPP Non-CHP,SC,,3.8,3.8,3.8,Solar Photovoltaic,SUN,PV,9,2024,"(U) Under construction, less than or equal to 50 percent complete",42.641661,-79.0173
66221,Finchville Tpke LLC,67480,NY Finchville Tpke CSG,Map,Map,NY,Orange,NYIS,IPP Non-CHP,FCHVL,,1.8,1.8,1.8,Solar Photovoltaic,SUN,PV,9,2024,"(TS) Construction complete, but not yet in commercial operation",41.449394,-74.55478
56990,NJR Clean Energy Ventures Corporation,67483,Norfolk Landfill Solar Project,Map,Map,CT,Litchfield,ISNE,IPP Non-CHP,NRFLK,,4,4,4,Solar Photovoltaic,SUN,PV,9,2024,"(U) Under construction, less than or equal to 50 percent complete",41.981,-73.152
56990,NJR Clean Energy Ventures Corporation,67484,Raffia Road Solar Project,Map,Map,CT,Hartford,ISNE,IPP Non-CHP,FLRFT,,4,4,4,Solar Photovoltaic,SUN,PV,9,2024,"(U) Under construction, less than or equal to 50 percent complete",41.964,-72.561
64904,AES Clean Energy,67579,AES ES Alamitos 2 LLC,Map,Map,CA,Los Angeles,CISO,IPP Non-CHP,ALMT2,,82,82,82,Batteries,MWH,BA,9,2024,"(U) Under construction, less than or equal to 50 percent complete",33.770287,-118.1
64516,"Azimuth 180 Solar Electric, LLC",67584,Oneida East,Map,Map,NY,Oneida,NYIS,IPP Non-CHP,ONEID,,4.8,4.8,4.8,Solar Photovoltaic,SUN,PV,9,2024,"(V) Under construction, more than 50 percent complete",43.19,-75.21
61060,Cypress Creek Renewables,67636,Galt,Map,Map,IL,Whiteside,PJM,IPP Non-CHP,GALT,,5,5,5,Solar Photovoltaic,SUN,PV,9,2024,(T) Regulatory approvals received. Not under construction,41.784441,-89.76102
64904,AES Clean Energy,67693,Tubolino CSG,Map,Map,NY,Jefferson,NYIS,IPP Non-CHP,TUBOL,,5,5,5,Solar Photovoltaic,SUN,PV,9,2024,"(U) Under construction, less than or equal to 50 percent complete",43.803688,-76.03003
66351,Citadel BESS LLC,67738,Citadel Battery Storage Plant,Map,Map,TX,Harris,ERCO,IPP Non-CHP,CITDL,,206,206,206,Batteries,MWH,BA,9,2024,"(TS) Construction complete, but not yet in commercial operation",29.87404,-95.01824
66350,Wigeon Whistle BESS LLC,67739,Wigeon Whistle Battery Storage Plant,Map,Map,TX,Collin,ERCO,IPP Non-CHP,WIDWH,,120,120,120,Batteries,MWH,BA,9,2024,"(TS) Construction complete, but not yet in commercial operation",33.030354,-96.3572
20806,City of Windom,2023,Windom,Map,Map,MN,Cottonwood,MISO,Electric Utility,CAT5,,3.1,2.8,2.8,Petroleum Liquids,DFO,IC,10,2024,"(V) Under construction, more than 50 percent complete",43.86811,-95.11444
20806,City of Windom,2023,Windom,Map,Map,MN,Cottonwood,MISO,Electric Utility,CAT6,,3.1,2.8,2.8,Petroleum Liquids,DFO,IC,10,2024,"(V) Under construction, more than 50 percent complete",43.86811,-95.11444
6775,Village of Freeport - (NY),2678,Plant No 1 Freeport,Map,Map,NY,Nassau,NYIS,Electric Utility,ENG13,,3,3,3,Landfill Gas,LFG,IC,10,2024,"(U) Under construction, less than or equal to 50 percent complete",40.6561,-73.5922
5416,"Duke Energy Carolinas, LLC",7277,Lincoln Combustion,Map,Map,NC,Lincoln,DUK,Electric Utility,17,,536.4,517,560,Natural Gas Fired Combustion Turbine,NG,GT,10,2024,"(V) Under construction, more than 50 percent complete",35.4317,-81.0347
12303,Merck & Co Inc-West Point,52149,West Point (PA),Map,Map,PA,Montgomery,PJM,Industrial CHP,GEN18,,2.5,2.5,2.5,Natural Gas Internal Combustion Engine,NG,IC,10,2024,"(TS) Construction complete, but not yet in commercial operation",40.217963,-75.29882
9210,International Paper Co-Riegelwood,54656,International Paper Riegelwood Mill,Map,Map,NC,Columbus,CPLE,Industrial CHP,NO4,,40,40,40,Wood/Wood Waste Biomass,BLQ,ST,10,2024,"(U) Under construction, less than or equal to 50 percent complete",34.3533,-78.2137
61610,"Delaware River Solar, LLC",62520,State Route 64N Community Solar Farm,Map,Map,NY,Ontario,NYIS,IPP Non-CHP,1089,,1.2,1.2,1.2,Solar Photovoltaic,SUN,PV,10,2024,(T) Regulatory approvals received. Not under construction,42.915,-77.454
61610,"Delaware River Solar, LLC",62523,Route 5 & 20 Community Solar Farm,Map,Map,NY,Ontario,NYIS,IPP Non-CHP,1093,,2.3,2.3,2.3,Solar Photovoltaic,SUN,PV,10,2024,(L) Regulatory approvals pending. Not under construction,42.899,-77.461
62008,Hale Kuawehi Solar LLC,62529,Hale Kuawehi Solar Hybrid,Map,Map,HI,Hawaii,HECO,IPP Non-CHP,HKSOL,,30,30,30,Solar Photovoltaic,SUN,PV,10,2024,"(U) Under construction, less than or equal to 50 percent complete",19.936688,-155.6793
65640,Vineyard Wind 1 LLC,63093,Vineyard Wind 1,Map,Map,MA,Dukes,ISNE,IPP Non-CHP,VW01,,800,800,800,Offshore Wind Turbine,WND,WS,10,2024,"(V) Under construction, more than 50 percent complete",41.047111,-70.48738
49893,Invenergy Services LLC,63194,Delilah Solar Energy LLC,Map,Map,TX,Red River,ERCO,IPP Non-CHP,GEN1,,300,300,300,Solar Photovoltaic,SUN,PV,10,2024,"(TS) Construction complete, but not yet in commercial operation",33.284418,-95.16356
63416,Ho'Ohana Solar 1 LLC,63723,Ho'Ohana Solar 1,Map,Map,HI,Honolulu,HECO,IPP Non-CHP,H0001,,52,52,52,Solar Photovoltaic,SUN,PV,10,2024,"(U) Under construction, less than or equal to 50 percent complete",21.418811,-158.0329
63416,Ho'Ohana Solar 1 LLC,63723,Ho'Ohana Solar 1,Map,Map,HI,Honolulu,HECO,IPP Non-CHP,HESS1,,52,52,52,Batteries,MWH,BA,10,2024,"(U) Under construction, less than or equal to 50 percent complete",21.418811,-158.0329
49893,Invenergy Services LLC,63884,Delilah Solar Energy II LLC,Map,Map,TX,Red River,ERCO,IPP Non-CHP,GEN1,,310,310,310,Solar Photovoltaic,SUN,PV,10,2024,"(V) Under construction, more than 50 percent complete",33.481551,-95.26925
14127,Omaha Public Power District,64547,Turtle Creek,Map,Map,NE,Sarpy,SWPP,Electric Utility,1,,264,221.1,221.1,Natural Gas Fired Combustion Turbine,NG,GT,10,2024,"(V) Under construction, more than 50 percent complete",41.092238,-96.16831
14127,Omaha Public Power District,64547,Turtle Creek,Map,Map,NE,Sarpy,SWPP,Electric Utility,2,,264,221.1,221.1,Natural Gas Fired Combustion Turbine,NG,GT,10,2024,"(V) Under construction, more than 50 percent complete",41.092238,-96.16831
61222,174 Power Global Corp.,64745,"Black Hollow Sun, LLC",Map,Map,CO,Weld,WACM,IPP Non-CHP,BHS01,,150,150,150,Solar Photovoltaic,SUN,PV,10,2024,"(P) Planned for installation, but regulatory approvals not initiated",40.616742,-104.8489
57313,Tesla Inc.,65072,Fremont CA AutoFactory,Map,Map,CA,Alameda,CISO,Industrial Non-CHP,GA3,,1.5,1.5,1.5,Solar Photovoltaic,SUN,PV,10,2024,"(U) Under construction, less than or equal to 50 percent complete",37.49254,-121.9446
57313,Tesla Inc.,65072,Fremont CA AutoFactory,Map,Map,CA,Alameda,CISO,Industrial Non-CHP,GVSRS,,0.4,0.4,0.4,Solar Photovoltaic,SUN,PV,10,2024,"(V) Under construction, more than 50 percent complete",37.49254,-121.9446
57313,Tesla Inc.,65072,Fremont CA AutoFactory,Map,Map,CA,Alameda,CISO,Industrial Non-CHP,STAMP,,1.2,1.2,1.2,Solar Photovoltaic,SUN,PV,10,2024,"(U) Under construction, less than or equal to 50 percent complete",37.49254,-121.9446
17609,Southern California Edison Co,65458,Anode (Springville) BESS,Map,Map,CA,Tulare,CISO,Electric Utility,ANOD1,,112.5,112.5,112.5,Batteries,MWH,BA,10,2024,"(V) Under construction, more than 50 percent complete",36.107903,-118.9409
17609,Southern California Edison Co,65458,Anode (Springville) BESS,Map,Map,CA,Tulare,CISO,Electric Utility,ANOD2,,112.5,112.5,112.5,Batteries,MWH,BA,10,2024,"(V) Under construction, more than 50 percent complete",36.107903,-118.9409
64924,"IP Lumina, LLC",65645,Lumina Solar Project,Map,Map,TX,Scurry,ERCO,IPP Non-CHP,LU1BA,,160,160,160,Batteries,MWH,BA,10,2024,"(V) Under construction, more than 50 percent complete",32.901081,-100.9827
62842,"Lightsource Renewable Energy Asset Management, LLC",65736,Driver Solar,Map,Map,AR,Mississippi,MISO,IPP Non-CHP,AKDR1,,150,150,150,Solar Photovoltaic,SUN,PV,10,2024,"(V) Under construction, more than 50 percent complete",35.640573,-89.96939
56769,Consolidated Edison Development Inc.,65892,Timberland Solar,Map,Map,GA,Oglethorpe,SEPA,IPP Non-CHP,TSPV,,140,140,140,Solar Photovoltaic,SUN,PV,10,2024,"(V) Under construction, more than 50 percent complete",33.964323,-82.81584
65100,"Listonburg Solar, LLC",65929,Listonburg Solar,Map,Map,PA,Somerset,PJM,IPP Non-CHP,8,,15,15,15,Solar Photovoltaic,SUN,PV,10,2024,"(P) Planned for installation, but regulatory approvals not initiated",39.76472,-79.30339
60970,SunShare Management,66072,Oster Sun CSG,Map,Map,MN,Stearns,MISO,IPP Non-CHP,OSTRS,,1,1,1,Solar Photovoltaic,SUN,PV,10,2024,"(P) Planned for installation, but regulatory approvals not initiated",45.628723,-94.61461
65381,"Gravel Pit Solar, LLC",66268,"Gravel Pit Solar, LLC",Map,Map,CT,Hartford,ISNE,IPP Non-CHP,GPS03,,50,50,50,Solar Photovoltaic,SUN,PV,10,2024,"(V) Under construction, more than 50 percent complete",41.8889,-72.549
65381,"Gravel Pit Solar, LLC",66268,"Gravel Pit Solar, LLC",Map,Map,CT,Hartford,ISNE,IPP Non-CHP,GPS04,,70,70,70,Solar Photovoltaic,SUN,PV,10,2024,"(V) Under construction, more than 50 percent complete",41.8889,-72.549
64994,SolRiver Capital LLC,66351,Marble Solar LLC (CSG),Map,Map,OR,Linn,BPAT,IPP Non-CHP,PV1,,2.9,2.9,2.9,Solar Photovoltaic,SUN,PV,10,2024,(T) Regulatory approvals received. Not under construction,44.629783,-123.0213
64994,SolRiver Capital LLC,66355,Wallace Solar LLC (CSG),Map,Map,OR,Polk,PGE,IPP Non-CHP,PV1,,3,3,3,Solar Photovoltaic,SUN,PV,10,2024,(T) Regulatory approvals received. Not under construction,45.028153,-123.0969
65173,United States Solar Corporation,66436,USS Cogburn Solar LLC,Map,Map,CO,Weld,PSCO,IPP Non-CHP,USCOG,,2.4,2.4,2.4,Solar Photovoltaic,SUN,PV,10,2024,(T) Regulatory approvals received. Not under construction,40.464272,-104.6102
16609,San Diego Gas & Electric Co,66599,Dark Sky Energy Center,Map,Map,CA,San Diego,CISO,Electric Utility,1,,7.3,7.1,7.1,Batteries,MWH,BA,10,2024,"(U) Under construction, less than or equal to 50 percent complete",33.270508,-116.347
65645,"Wadley Solar, LLC",66626,Wadley Solar,Map,Map,GA,Jefferson,SOCO,IPP Non-CHP,WADLE,,260,260,260,Solar Photovoltaic,SUN,PV,10,2024,(T) Regulatory approvals received. Not under construction,32.820018,-82.40879
65683,Dublin Street LLC,66664,Dublin Street LLC,Map,Map,ME,Washington,ISNE,IPP Non-CHP,DBLNS,,4.9,4.9,4.9,Solar Photovoltaic,SUN,PV,10,2024,"(U) Under construction, less than or equal to 50 percent complete",44.70049,-67.46977
65684,549 Doles Ridge Rd Solar LLC,66665,549 Doles Ridge Rd Solar LLC,Map,Map,ME,York,ISNE,IPP Non-CHP,549DR,,4.9,4.9,4.9,Solar Photovoltaic,SUN,PV,10,2024,(T) Regulatory approvals received. Not under construction,43.67425,-70.73132
65677,Dimension Energy LLC,66676,Kings CSG 3 LLC,Map,Map,CA,Kings,CISO,IPP Non-CHP,KING3,,3,3,3,Solar Photovoltaic,SUN,PV,10,2024,"(V) Under construction, more than 50 percent complete",36.24918,-119.8852
65694,"Bright Arrow Solar, LLC",66688,"Bright Arrow Solar, LLC",Map,Map,TX,Hopkins,ERCO,IPP Non-CHP,BASS1,,103.6,103.6,103.6,Batteries,MWH,BA,10,2024,"(V) Under construction, more than 50 percent complete",33.22392,-95.73077
65742,"Blue Bird Solar, LLC",66747,"Blue Bird Solar, LLC",Map,Map,MO,Warren,MISO,IPP Non-CHP,BBS,,139,139,139,Solar Photovoltaic,SUN,PV,10,2024,"(V) Under construction, more than 50 percent complete",38.895406,-91.13656
64872,"Distributed Solar Development, LLC",66813,Caesar's Atlantic City - POI 1 (Colosseum),Map,Map,NJ,Atlantic,PJM,IPP Non-CHP,P5377,,1.4,1.4,1.4,Solar Photovoltaic,SUN,PV,10,2024,"(V) Under construction, more than 50 percent complete",39.355676,-74.43552
64872,"Distributed Solar Development, LLC",66831,Harrah's Atlantic City - POI 2 (Self Park Garage),Map,Map,NJ,Atlantic,PJM,IPP Non-CHP,P5614,,1.8,1.8,1.8,Solar Photovoltaic,SUN,PV,10,2024,"(V) Under construction, more than 50 percent complete",39.384389,-74.42627
65777,Urban Grid Solar,66841,Foxglove Solar,Map,Map,VA,Frederick,PJM,IPP Non-CHP,FOXG1,,75,75,75,Solar Photovoltaic,SUN,PV,10,2024,"(V) Under construction, more than 50 percent complete",39.073825,-78.28012
65794,Indiana Crossroads Wind Farm II LLC,66861,Indiana Crossroads Wind Farm II,Map,Map,IN,White,MISO,IPP Non-CHP,GEN01,,201.6,200,200,Onshore Wind Turbine,WND,WT,10,2024,"(TS) Construction complete, but not yet in commercial operation",40.779357,-87.04211
65799,"Enel Green Power Estonian Solar Project, LLC",66872,"Estonian Solar Project, LLC",Map,Map,TX,Delta,ERCO,IPP Non-CHP,BESS,,100,100,100,Batteries,MWH,BA,10,2024,"(TS) Construction complete, but not yet in commercial operation",33.457143,-95.6679
65799,"Enel Green Power Estonian Solar Project, LLC",66872,"Estonian Solar Project, LLC",Map,Map,TX,Delta,ERCO,IPP Non-CHP,SOLAR,,204.5,204.5,204.5,Solar Photovoltaic,SUN,PV,10,2024,"(TS) Construction complete, but not yet in commercial operation",33.457143,-95.6679
65552,Terra-Gen Operating Co-BESS 2,66949,Sagebrush Solar 2 ESS 40,Map,Map,CA,Kern,CISO,IPP Non-CHP,1,,40,40,40,Batteries,MWH,BA,10,2024,"(V) Under construction, more than 50 percent complete",35.0477,-118.2628
61944,MN8 Energy LLC,67010,Dynamic - Wales Pond Road,Map,Map,ME,Androscoggin,ISNE,IPP Non-CHP,GEN1,,4.9,4.9,4.9,Solar Photovoltaic,SUN,PV,10,2024,"(U) Under construction, less than or equal to 50 percent complete",44.178859,-70.0703
64428,"Evergy, Inc.",67025,Osawatomie Solar,Map,Map,KS,Miami,SWPP,IPP Non-CHP,PV,,4.9,4.9,4.9,Solar Photovoltaic,SUN,PV,10,2024,"(U) Under construction, less than or equal to 50 percent complete",38.521483,-94.93821
65962,"Catalyze Fort Worth 5200 Gold Spike Drive Microgrid, LLC",67058,TX Fort Worth 5200 Gold Spike Drive,Map,Map,TX,Tarrant,ERCO,IPP Non-CHP,19599,,4,4,4,Solar Photovoltaic,SUN,PV,10,2024,"(V) Under construction, more than 50 percent complete",32.831328,-97.34727
65970,"Sunlight Road Solar, LLC",67071,Sunlight Road Solar,Map,Map,LA,Washington,MISO,IPP Non-CHP,SRS,,50,50,50,Solar Photovoltaic,SUN,PV,10,2024,"(V) Under construction, more than 50 percent complete",30.781803,-90.21736
66001,"Bayou Galion Solar Project, LLC",67104,Bayou Galion Solar Project,Map,Map,LA,Morehouse Parish,MISO,IPP Non-CHP,BAYOU,,98.1,98.1,98.1,Solar Photovoltaic,SUN,PV,10,2024,"(V) Under construction, more than 50 percent complete",32.79754,-91.78413
16609,San Diego Gas & Electric Co,67118,Santee BESS,Map,Map,CA,San Diego,CISO,Electric Utility,1,,10,10,10,Batteries,MWH,BA,10,2024,"(U) Under construction, less than or equal to 50 percent complete",32.854918,-116.9684
60025,Greenbacker Renewable Energy Corporation,67119,Ring Road,Map,Map,MA,Plymouth,ISNE,IPP Non-CHP,686,,2,2,2,Solar Photovoltaic,SUN,PV,10,2024,"(V) Under construction, more than 50 percent complete",41.975339,-70.78148
60025,Greenbacker Renewable Energy Corporation,67154,Mars Hill,Map,Map,ME,Aroostook,ISNE,IPP Non-CHP,577,,2.6,2.6,2.6,Solar Photovoltaic,SUN,PV,10,2024,"(V) Under construction, more than 50 percent complete",46.516899,-67.8833
60025,Greenbacker Renewable Energy Corporation,67155,Our Katahdin,Map,Map,ME,Penobscot,ISNE,IPP Non-CHP,696,,5,5,5,Solar Photovoltaic,SUN,PV,10,2024,"(V) Under construction, more than 50 percent complete",45.650357,-68.70798
5701,El Paso Electric Co,67174,Chihuahuan Desert Solar,Map,Map,TX,El Paso,EPE,Electric Utility,10TXC,,10,10,10,Solar Photovoltaic,SUN,PV,10,2024,"(U) Under construction, less than or equal to 50 percent complete",31.560528,-106.2586
66069,Paxton BESS 1 LLC,67187,Paxton BESS 1,Map,Map,MA,Worcester,ISNE,IPP Non-CHP,90912,,3,3,3,Batteries,MWH,BA,10,2024,"(U) Under construction, less than or equal to 50 percent complete",42.291264,-71.94546
56990,NJR Clean Energy Ventures Corporation,67252,Foul Rift Solar Farm,Map,Map,NJ,Warren,PJM,IPP Non-CHP,FLRFT,,15.4,15.4,15.4,Solar Photovoltaic,SUN,PV,10,2024,"(V) Under construction, more than 50 percent complete",40.8,-75.09
61227,Nautilus Solar Solutions,67329,Sheesley,Map,Map,NY,St Lawrence,NYIS,IPP Non-CHP,SC,,4.4,4.4,4.4,Solar Photovoltaic,SUN,PV,10,2024,"(U) Under construction, less than or equal to 50 percent complete",44.6059,-75.1589
61227,Nautilus Solar Solutions,67337,Ver Plank North,Map,Map,NY,Onondaga,NYIS,IPP Non-CHP,SC,,4,4,4,Solar Photovoltaic,SUN,PV,10,2024,"(U) Under construction, less than or equal to 50 percent complete",43.201165,-76.17609
61227,Nautilus Solar Solutions,67338,Ver Plank South,Map,Map,NY,Onondaga,NYIS,IPP Non-CHP,SC,,5,5,5,Solar Photovoltaic,SUN,PV,10,2024,"(U) Under construction, less than or equal to 50 percent complete",43.194602,-76.17513
66172,"Hat Creek Bioenergy, LLC",67360,Hat Creek Bioenergy,Map,Map,CA,Shasta,CISO,IPP Non-CHP,HAT01,,3.6,3,3,Wood/Wood Waste Biomass,WDS,OT,10,2024,"(V) Under construction, more than 50 percent complete",40.987783,-121.6225
61227,Nautilus Solar Solutions,67396,Mechanic Street,Map,Map,ME,Aroostook,ISNE,IPP Non-CHP,SC,,3,3,3,Solar Photovoltaic,SUN,PV,10,2024,"(U) Under construction, less than or equal to 50 percent complete",46.6837,-68.0382
61227,Nautilus Solar Solutions,67398,Missile Street,Map,Map,ME,Aroostook,ISNE,IPP Non-CHP,SC,,3,3,3,Solar Photovoltaic,SUN,PV,10,2024,"(U) Under construction, less than or equal to 50 percent complete",46.7057,-68.0441
61227,Nautilus Solar Solutions,67410,Exeter Ten,Map,Map,RI,Washington,ISNE,IPP Non-CHP,SC,,2.8,2.8,2.8,Solar Photovoltaic,SUN,PV,10,2024,"(U) Under construction, less than or equal to 50 percent complete",41.58008,-71.56706
64904,AES Clean Energy,67412,Geer Road Solar 2,Map,Map,NY,Washington,NYIS,IPP Non-CHP,GEER2,,5,5,5,Solar Photovoltaic,SUN,PV,10,2024,"(V) Under construction, more than 50 percent complete",43.36,-73.563
64904,AES Clean Energy,67413,Geer Road Solar 3,Map,Map,NY,Washington,NYIS,IPP Non-CHP,GEER3,,5,5,5,Solar Photovoltaic,SUN,PV,10,2024,"(V) Under construction, more than 50 percent complete",43.354,-73.571
64904,AES Clean Energy,67418,Geer Road Solar 1,Map,Map,NY,Washington,NYIS,IPP Non-CHP,GEER1,,5,5,5,Solar Photovoltaic,SUN,PV,10,2024,"(V) Under construction, more than 50 percent complete",43.356,-73.566
64904,AES Clean Energy,67421,Cavalier Solar A2,Map,Map,VA,Isle of Wight,PJM,IPP Non-CHP,CAVA2,,84.4,84.4,84.4,Solar Photovoltaic,SUN,PV,10,2024,"(U) Under construction, less than or equal to 50 percent complete",37.018,-76.7358
61227,Nautilus Solar Solutions,67437,North Woods,Map,Map,NY,St Lawrence,NYIS,IPP Non-CHP,SC,,5,5,5,Solar Photovoltaic,SUN,PV,10,2024,"(U) Under construction, less than or equal to 50 percent complete",44.6177,-75.1622
65076,"HEN Infrastructure, L.L.C.",67493,Pavlov,Map,Map,TX,Matagorda,ERCO,IPP Non-CHP,PAVLV,,9.9,9.9,9.9,Batteries,MWH,BA,10,2024,"(V) Under construction, more than 50 percent complete",28.994112,-96.1262
65076,"HEN Infrastructure, L.L.C.",67495,Russek,Map,Map,TX,Reagan,ERCO,IPP Non-CHP,RUSSK,,9.9,9.9,9.9,Batteries,MWH,BA,10,2024,"(U) Under construction, less than or equal to 50 percent complete",31.183494,-101.4604
65076,"HEN Infrastructure, L.L.C.",67496,Sandlake,Map,Map,TX,Reeves,ERCO,IPP Non-CHP,SDLKB,,9.9,9.9,9.9,Batteries,MWH,BA,10,2024,"(V) Under construction, more than 50 percent complete",31.508786,-103.6175
9417,Interstate Power and Light Co,67536,Creston Solar (50 MW),Map,Map,IA,Union,MISO,Electric Utility,PV1,,50,50,50,Solar Photovoltaic,SUN,PV,10,2024,"(V) Under construction, more than 50 percent complete",41.070705,-94.31849
65173,United States Solar Corporation,67545,Marshall Solar Plus LLC,Map,Map,MN,Lyon,MISO,IPP Non-CHP,MARSL,,10,10,10,Solar Photovoltaic,SUN,PV,10,2024,"(V) Under construction, more than 50 percent complete",44.469889,-95.7792
66280,"Markum Solar Farm, LLC",67580,Markum Solar Farm,Map,Map,TX,Bosque,ERCO,IPP Non-CHP,MKM,,161,161,161,Solar Photovoltaic,SUN,PV,10,2024,"(V) Under construction, more than 50 percent complete",31.694792,-97.37488
61194,Generate Capital,67616,"Krumkill Road Solar South, LLC",Map,Map,NY,Albany,NYIS,IPP Non-CHP,11087,,3.8,3.8,3.8,Solar Photovoltaic,SUN,PV,10,2024,(L) Regulatory approvals pending. Not under construction,42.66627,-73.85647
61060,Cypress Creek Renewables,67635,Dakota,Map,Map,IL,Stephenson,PJM,IPP Non-CHP,DAKOT,,5,5,5,Solar Photovoltaic,SUN,PV,10,2024,(T) Regulatory approvals received. Not under construction,42.389211,-89.48509
61060,Cypress Creek Renewables,67640,Meltwater,Map,Map,NY,Onondaga,NYIS,IPP Non-CHP,MELTW,,5,5,5,Solar Photovoltaic,SUN,PV,10,2024,(T) Regulatory approvals received. Not under construction,43.068278,-75.94744
61060,Cypress Creek Renewables,67641,Niagara (NY),Map,Map,NY,Niagara,NYIS,IPP Non-CHP,NIAGA,,4.2,4.2,4.2,Solar Photovoltaic,SUN,PV,10,2024,(T) Regulatory approvals received. Not under construction,43.295921,-78.82587
61060,Cypress Creek Renewables,67646,Walldog,Map,Map,IL,Livingston,PJM,IPP Non-CHP,WALLD,,5,5,5,Solar Photovoltaic,SUN,PV,10,2024,(T) Regulatory approvals received. Not under construction,40.913454,-88.64291
66305,"Rio Vista Executive Boat & RV Storage, LLC",67648,Rio Vista Solar,Map,Map,CA,Solano,CISO,Commercial Non-CHP,30200,,2.7,2.7,2.7,Solar Photovoltaic,SUN,PV,10,2024,"(V) Under construction, more than 50 percent complete",38.16492,-121.6847
61944,MN8 Energy LLC,67706,Spring Lane,Map,Map,PA,Westmoreland,PJM,IPP Non-CHP,GEN1,,13.8,13.8,13.8,Solar Photovoltaic,SUN,PV,10,2024,"(U) Under construction, less than or equal to 50 percent complete",40.183449,-79.31957
10623,City of Lakeland - (FL),676,C D McIntosh Jr,Map,Map,FL,Polk,FMPP,Electric Utility,IC3,,20,20,20,Natural Gas Internal Combustion Engine,NG,IC,11,2024,"(V) Under construction, more than 50 percent complete",28.0801,-81.9229
10623,City of Lakeland - (FL),676,C D McIntosh Jr,Map,Map,FL,Polk,FMPP,Electric Utility,IC4,,20,20,20,Natural Gas Internal Combustion Engine,NG,IC,11,2024,"(V) Under construction, more than 50 percent complete",28.0801,-81.9229
10623,City of Lakeland - (FL),676,C D McIntosh Jr,Map,Map,FL,Polk,FMPP,Electric Utility,IC5,,20,20,20,Natural Gas Internal Combustion Engine,NG,IC,11,2024,"(V) Under construction, more than 50 percent complete",28.0801,-81.9229
10623,City of Lakeland - (FL),676,C D McIntosh Jr,Map,Map,FL,Polk,FMPP,Electric Utility,IC6,,20,20,20,Natural Gas Internal Combustion Engine,NG,IC,11,2024,"(V) Under construction, more than 50 percent complete",28.0801,-81.9229
10623,City of Lakeland - (FL),676,C D McIntosh Jr,Map,Map,FL,Polk,FMPP,Electric Utility,IC7,,20,20,20,Natural Gas Internal Combustion Engine,NG,IC,11,2024,"(V) Under construction, more than 50 percent complete",28.0801,-81.9229
10623,City of Lakeland - (FL),676,C D McIntosh Jr,Map,Map,FL,Polk,FMPP,Electric Utility,IC8,,20,20,20,Natural Gas Internal Combustion Engine,NG,IC,11,2024,"(V) Under construction, more than 50 percent complete",28.0801,-81.9229
27075,San Diego County Water Auth,56615,Rancho Penasquitos,Map,Map,CA,San Diego,CISO,IPP Non-CHP,G200,,4.3,4.1,2.3,Conventional Hydroelectric,WAT,HY,11,2024,"(U) Under construction, less than or equal to 50 percent complete",32.93695,-117.1137
59319,"Cotton Solar, LLC",59572,Cotton Solar,Map,Map,SC,Dillon,CPLE,IPP Non-CHP,PV1,,16,16,16,Solar Photovoltaic,SUN,PV,11,2024,(T) Regulatory approvals received. Not under construction,34.455,-79.41028
62008,Hale Kuawehi Solar LLC,62529,Hale Kuawehi Solar Hybrid,Map,Map,HI,Hawaii,HECO,IPP Non-CHP,HKBA,,30,30,30,Batteries,MWH,BA,11,2024,"(U) Under construction, less than or equal to 50 percent complete",19.936688,-155.6793
62646,"Painter Energy Storage, LLC",62729,Painter Energy Storage,Map,Map,CA,Santa Barbara,CISO,IPP Non-CHP,PAIN1,,10,10,10,Batteries,MWH,BA,11,2024,"(U) Under construction, less than or equal to 50 percent complete",34.41,-119.515
49893,Invenergy Services LLC,63882,Samson Solar Energy II LLC,Map,Map,TX,Lamar,ERCO,IPP Non-CHP,GEN1,,200,200,200,Solar Photovoltaic,SUN,PV,11,2024,"(U) Under construction, less than or equal to 50 percent complete",33.25102,-95.19343
63969,"Placid Solar, LLC",64346,Highland Solar South,Map,Map,FL,Highlands,FPC,IPP Non-CHP,9999,,74.9,74.9,74.9,Solar Photovoltaic,SUN,PV,11,2024,(L) Regulatory approvals pending. Not under construction,27.2664,-81.4082
14127,Omaha Public Power District,64548,Standing Bear Lake,Map,Map,NE,Douglas,SWPP,Electric Utility,1,,18.1,16.8,16.8,Natural Gas Internal Combustion Engine,NG,IC,11,2024,"(V) Under construction, more than 50 percent complete",41.315814,-96.09392
14127,Omaha Public Power District,64548,Standing Bear Lake,Map,Map,NE,Douglas,SWPP,Electric Utility,2,,18.1,16.8,16.8,Natural Gas Internal Combustion Engine,NG,IC,11,2024,"(V) Under construction, more than 50 percent complete",41.315814,-96.09392
14127,Omaha Public Power District,64548,Standing Bear Lake,Map,Map,NE,Douglas,SWPP,Electric Utility,3,,18.1,16.8,16.8,Natural Gas Internal Combustion Engine,NG,IC,11,2024,"(V) Under construction, more than 50 percent complete",41.315814,-96.09392
14127,Omaha Public Power District,64548,Standing Bear Lake,Map,Map,NE,Douglas,SWPP,Electric Utility,4,,18.1,16.8,16.8,Natural Gas Internal Combustion Engine,NG,IC,11,2024,"(V) Under construction, more than 50 percent complete",41.315814,-96.09392
